stop_lat,stop_name,stop_id,the_geom,stop_lon
-35.28751,Arboretum Car Park,32,POINT (149.06832900020888 -35.28750999935273),149.068329
-35.291889,Arboretum Stop 3,33,POINT (149.06399500020567 -35.291888999352366),149.063995
-35.347042,Fremantle Dr after McKail Cr,201,POINT (149.04794300019435 -35.347041999347056),149.047943
-35.273621,Donaldson St after Ainslie Primary School,300,POINT (149.14082300026928 -35.273620999352346),149.140823
-35.216084,MacFarlane Burnet Av after DeGruchy Pl,401,POINT (149.00297500016399 -35.21608399936133),149.002975
-35.212837,MacFarlane Burnet Av after Eccles Cct,402,POINT (149.00419600016474 -35.21283699936164),149.004196
-35.212666,MacFarlane Burnet Av before Eccles Cct,403,POINT (149.0040130001646 -35.212665999361654),149.004013
-35.216072,MacFarlane Burnet Av after Hallows Cct,404,POINT (149.00335700016421 -35.216071999361326),149.003357
-35.209343,MacFarlane Burnet Av after Constance Stone St,405,POINT (149.0032200001641 -35.209342999362),149.00322
-35.209293,MacFarlane Burnet Av before Constance Stone St,406,POINT (149.00297500016396 -35.20929299936203),149.002975
-35.192123,O'Hanlon Pl after Gold Creek Rd,600,POINT (149.08596800022184 -35.19212299936201),149.085968
-35.192142,O'Hanlon Pl before Gold Creek Rd,601,POINT (149.0860750002219 -35.192141999362),149.086075
-35.426113,Drumston St opp MacKillop College,1001,POINT (149.09161400022785 -35.42611299933789),149.091614
-35.425972,Drumston St MacKillop after Isabella Dr,1002,POINT (149.0917050002279 -35.425971999337904),149.091705
-35.418968,Hambidge Cr after Truganini Pl,1003,POINT (149.12002600025167 -35.41896799933791),149.120026
-35.42786,Ellerston Av opp Isabella Plains Shops,1007,POINT (149.09103400022744 -35.42785999933772),149.091034
-35.427479,Ellerston Av Isabella Plains Shops,1008,POINT (149.09141500022773 -35.42747899933775),149.091415
-35.425655,Ellerston Av after Drumston St,1009,POINT (149.09549000023102 -35.42565499933784),149.09549
-35.425766,Ellerston Av 2nd after Collyburl Cr,1010,POINT (149.095459000231 -35.42576599933783),149.095459
-35.426369,Ellerston Av 2nd after Drumston St,1011,POINT (149.09800700023305 -35.42636899933771),149.098007
-35.426601,Ellerston Av after Collyburl Cr,1012,POINT (149.09811400023318 -35.42660099933768),149.098114
-35.428486,Ellerston Av after Abercorn Cr,1013,POINT (149.10061600023525 -35.42848599933743),149.100616
-35.428391,Ellerston Av after Groveland Cr,1014,POINT (149.10035700023502 -35.42839099933744),149.100357
-35.428791,Ellerston Av after 2nd Abercorn Cr,1015,POINT (149.10289000023715 -35.42879099933733),149.10289
-35.428921,Ellerston Av after Ashley Dr,1016,POINT (149.1028440002371 -35.428920999337336),149.102844
-35.435093,Webber Cr Calwell Shops,1017,POINT (149.1137390002464 -35.4350929993364),149.113739
-35.436661,Casey Cr after Roope Cl,1019,POINT (149.11128200024427 -35.4366609993363),149.111282
-35.436859,Casey Cr after Downard St,1020,POINT (149.1108400002439 -35.436858999336295),149.11084
-35.439865,Duggan St after Downard St,1027,POINT (149.09861800023367 -35.43986499933629),149.098618
-35.439835,Duggan St after Beckett St,1028,POINT (149.09848000023356 -35.439834999336306),149.09848
-35.441601,Duggan St after Tharwa Dr,1029,POINT (149.10090600023557 -35.441600999336046),149.100906
-35.441601,Duggan St after Andrew Cr,1030,POINT (149.10112000023577 -35.44160099933605),149.10112
-35.444824,Tharwa Dr after Fidge St overpass,1031,POINT (149.1057130002396 -35.44482399933559),149.105713
-35.444454,Tharwa Dr after Fidge St overpass,1032,POINT (149.10398900023816 -35.44445399933568),149.103989
-35.447277,Lawrence Wackett Cr opp Theodore Primary School,1033,POINT (149.124619000256 -35.447276999334846),149.124619
-35.447346,Lawrence Wackett Cr Theodore PS,1034,POINT (149.12448100025583 -35.44734599933485),149.124481
-35.449867,Lawrence Wackett Cr after Burdett Cr,1035,POINT (149.12255900025417 -35.44986699933464),149.122559
-35.450001,Lawrence Wackett Cr after Latchford St,1036,POINT (149.12249800025413 -35.45000099933462),149.122498
-35.450821,Chippindall Cct after Louis Loder St,1037,POINT (149.12010200025202 -35.4508209993346),149.120102
-35.450718,Chippindall Cct after Latchford St,1038,POINT (149.12030000025214 -35.450717999334614),149.1203
-35.434803,Hurtle Av after Noarlunga Cr,1044,POINT (149.08615100022357 -35.43480299933711),149.086151
-35.434727,Hurtle Av 2nd after Bardolph St,1045,POINT (149.0859680002234 -35.43472699933713),149.085968
-35.426731,Barr Smith Av after Salas St,1046,POINT (149.07417300021413 -35.42673099933823),149.074173
-35.426899,Barr Smith Av after Don Dunstan Dr,1047,POINT (149.07418800021415 -35.426898999338206),149.074188
-35.428455,Coombe St after Barr Smith Av,1048,POINT (149.07530200021503 -35.42845499933803),149.075302
-35.428543,Coombe St after Kneebone St,1049,POINT (149.07533300021507 -35.42854299933802),149.075333
-35.430763,Kingscote Cr after Marquet Rt,1050,POINT (149.07762100021682 -35.43076299933773),149.077621
-35.430836,Kingscote Cr after Kneebone St,1051,POINT (149.07765200021686 -35.430835999337724),149.077652
-35.431099,Barr Smith Av after Kingscote Cr,1052,POINT (149.08000200021868 -35.43109899933764),149.080002
-35.431263,Barr Smith Av after Hurtle St,1053,POINT (149.08006300021873 -35.43126299933764),149.080063
-35.434406,Hurtle Av after Bardolph St,1054,POINT (149.0835880002215 -35.434405999337216),149.083588
-35.433937,Hurtle Av after Ebenezer St,1055,POINT (149.08288600022095 -35.43393699933727),149.082886
-35.432125,Hurtle Av opp Bonython Primary School,1056,POINT (149.0823060002205 -35.43212499933748),149.082306
-35.431442,Hurtle Av Bonython Primary School,1057,POINT (149.08229100022047 -35.43144199933756),149.082291
-35.418682,Soward Way Homeworld,1059,POINT (149.0678860002093 -35.41868199933921),149.067886
-35.417271,Soward Way after Anketell St,1061,POINT (149.07069400021146 -35.417270999339294),149.070694
-35.417377,Soward Way after Drakeford Dr,1062,POINT (149.0707400002115 -35.41737699933928),149.07074
-35.422657,Scollay St Tuggeranong Bus Depot,1063,POINT (149.06973300021076 -35.42265699933878),149.069733
-35.421806,Scollay St after Reed St,1064,POINT (149.06922900021036 -35.42180599933885),149.069229
-35.422695,Anketell St Bunnings Tuggeranong,1065,POINT (149.07290600021315 -35.42269499933868),149.072906
-35.422523,Anketell St opp Actew AGL,1066,POINT (149.07292200021317 -35.42252299933871),149.072922
-35.419796,Anketell St opp Tuggeranong Square,1067,POINT (149.07084700021156 -35.41979599933903),149.070847
-35.419975,Anketell St after Bunnings Warehouse,1068,POINT (149.07083100021154 -35.419974999339),149.070831
-35.430393,Ellerston Av before Noorooma Av,1069,POINT (149.08816500022513 -35.43039299933753),149.088165
-35.430126,Ellerston Av after Noorooma Av,1070,POINT (149.08825700022518 -35.43012599933756),149.088257
-35.431595,Ellerston Av after Keverstone Cct,1071,POINT (149.08880600022565 -35.43159499933738),149.088806
-35.431553,Ellerston Av before Kadina St,1072,POINT (149.08889800022573 -35.431552999337384),149.088898
-35.431904,Ellerston Av after Jasper Cl,1073,POINT (149.0923770002285 -35.431903999337266),149.092377
-35.431675,Ellerston Av after Kadina St,1074,POINT (149.0920560002283 -35.43167499933728),149.092056
-35.433964,Ellerston Av after Johnston Dr,1075,POINT (149.09466600023038 -35.433963999336996),149.094666
-35.433781,Ellerston Av after 2nd Galloway St,1076,POINT (149.0946500002304 -35.43378099933702),149.09465
-35.435753,Outtrim Av 2nd after Gurr St,1077,POINT (149.09866300023367 -35.43575299933671),149.098663
-35.435688,Outtrim Av after Johnson Dr,1078,POINT (149.09840400023344 -35.435687999336736),149.098404
-35.435898,Outtrim Av after Carter Cr,1079,POINT (149.10202000023648 -35.43589799933663),149.10202
-35.435978,Outtrim Av after Gurr St,1080,POINT (149.10194400023641 -35.43597799933661),149.101944
-35.436062,Outtrim Av after 2nd Carter Cr,1081,POINT (149.10467500023867 -35.43606199933653),149.104675
-35.436089,Outtrim Av 2nd after Mountain Cct,1082,POINT (149.1048280002388 -35.43608899933653),149.104828
-35.435623,Outtrim Av after Costello Cct,1083,POINT (149.10948200024276 -35.43562299933645),149.109482
-35.435703,Outtrim Av after Mountain Cct,1084,POINT (149.10948200024276 -35.43570299933645),149.109482
-35.438694,Casey Cr after Dougharty Pl,1085,POINT (149.1103520002435 -35.43869399933611),149.110352
-35.43858,Casey Cr after Carpenter Cl,1086,POINT (149.11041300024354 -35.438579999336135),149.110413
-35.417179,Barraclough Cr after Cowdery Pl,1087,POINT (149.10064700023517 -35.417178999338596),149.100647
-35.417183,Barraclough Cr after Ashley Dr,1088,POINT (149.10037200023496 -35.41718299933861),149.100372
-35.440018,Casey Cr after O'Connor Cct,1089,POINT (149.1131440002459 -35.4400179993359),149.113144
-35.439957,Casey Cr after Loader Cr,1090,POINT (149.11323500024596 -35.43995699933591),149.113235
-35.433498,Johnson Dr Calwell Park and Ride,1091,POINT (149.11128200024424 -35.43349799933663),149.111282
-35.44112,Casey Cr 3rd after Were St,1092,POINT (149.11592100024828 -35.44111999933572),149.115921
-35.433212,Johnson Dr Opp Calwell Park and Ride,1093,POINT (149.11259500024536 -35.433211999336635),149.112595
-35.441063,Casey Cr after Were St,1094,POINT (149.11888100025084 -35.44106299933565),149.118881
-35.440384,Were St Netball Courts,1095,POINT (149.12071200025247 -35.44038399933567),149.120712
-35.440536,Were St after Tharwa Dr,1096,POINT (149.12068200025243 -35.440535999335665),149.120682
-35.445644,Louis Loder St after Lawrence Wackett Cr,1109,POINT (149.11677600024908 -35.44564399933523),149.116776
-35.445576,Louis Loder St after Hartung Cr,1110,POINT (149.11666900024898 -35.44557599933523),149.116669
-35.446537,Louis Loder St after 2nd Mehaffey Cr,1111,POINT (149.11451700024713 -35.446536999335194),149.114517
-35.446522,Louis Loder St after Vonwiller Cr,1112,POINT (149.11488300024743 -35.446521999335175),149.114883
-35.448009,Louis Loder St after Cochrane Cr,1113,POINT (149.11521900024772 -35.448008999335016),149.115219
-35.448128,Louis Loder St after 2nd Conlon Cr,1114,POINT (149.11526500024777 -35.448127999335),149.115265
-35.450546,Louis Loder St after 2nd Cochrane Cr,1115,POINT (149.11741600024965 -35.45054599933469),149.117416
-35.450596,Louis Loder St after Conlon Cr,1116,POINT (149.11726400024955 -35.4505959993347),149.117264
-35.43325,Clift Cr before Johnson Dr,1117,POINT (149.11842300025043 -35.433249999336475),149.118423
-35.433113,Clift Cr after Johnson Dr,1118,POINT (149.11822500025025 -35.43311299933649),149.118225
-35.431156,Clift Cr after 2nd Chauncy Cr,1119,POINT (149.11917100025104 -35.43115599933665),149.119171
-35.431118,Clift Cr after Fullerton Cr,1120,POINT (149.1193540002512 -35.43111799933667),149.119354
-35.429241,Deamer Cr after Clift Cr,1121,POINT (149.12144500025303 -35.42924099933682),149.121445
-35.429356,Deamer Cr after Meeson St,1122,POINT (149.12094100025257 -35.42935599933682),149.120941
-35.430847,Deamer Cr after Twamley Cr,1123,POINT (149.12353500025486 -35.430846999336595),149.123535
-35.430916,Deamer Cr after Mary MacKillop Pl,1124,POINT (149.12342800025482 -35.430915999336584),149.123428
-35.431496,Deamer Cr after 2nd Twamley Cr,1125,POINT (149.12706000025804 -35.43149599933644),149.12706
-35.431725,Deamer Cr before Mary MacKillop Pl,1126,POINT (149.12698400025795 -35.43172499933641),149.126984
-35.429424,Deamer Cr before Nina Jones Cr,1127,POINT (149.12879900025956 -35.429423999336606),149.128799
-35.429787,Deamer Cr after 2nd Nina Jones Cr,1128,POINT (149.12867700025947 -35.429786999336564),149.128677
-35.427319,Deamer Cr after Heagney Cr,1129,POINT (149.12980700026046 -35.42731899933679),149.129807
-35.427189,Deamer Cr before Heagney Cr,1130,POINT (149.12960800026025 -35.42718899933681),149.129608
-35.426487,Heagney Cr after Rose Scott Cr,1131,POINT (149.13099700026152 -35.42648699933684),149.130997
-35.426567,Heagney Cr after Deamer Cr,1132,POINT (149.13024900026085 -35.42656699933686),149.130249
-35.424587,Heagney Cr after Couchman Cr,1133,POINT (149.1332090002635 -35.42458699933698),149.133209
-35.424694,Heagney Cr after Hawton Pl,1134,POINT (149.13302600026333 -35.42469399933698),149.133026
-35.423046,Heagney Cr before Couchman Cr North Entry,1135,POINT (149.13491800026506 -35.423045999337106),149.134918
-35.423023,Heagney Cr after 2nd Couchman Cr,1136,POINT (149.1345370002647 -35.423022999337114),149.134537
-35.421379,Heagney Cr after Henry Melville Cr,1137,POINT (149.13598600026603 -35.42137899933725),149.135986
-35.420925,Heagney Cr after Emily Bulcock Cr,1138,POINT (149.13601700026607 -35.42092499933729),149.136017
-35.419228,Heagney Cr after Louisa Lawson Cr South Entry,1139,POINT (149.13609300026607 -35.41922799933746),149.136093
-35.419094,Heagney Cr after 2nd Henry Melville Cr,1140,POINT (149.135986000266 -35.41909399933748),149.135986
-35.416931,Heagney Cr before 2nd Louisa Lawson Cr,1141,POINT (149.13546800026552 -35.41693099933772),149.135468
-35.416759,Heagney Cr 3rd after Emily Bullock Cr,1142,POINT (149.13505600026514 -35.41675899933775),149.135056
-35.415211,Proctor St after Sweet Pl,1143,POINT (149.1251530002562 -35.415210999338164),149.125153
-35.415329,Proctor St after Maclean St,1144,POINT (149.1252590002563 -35.41532899933816),149.125259
-35.414936,Heagney Cr after Louisa Lawson Cr North Entry,1145,POINT (149.13290400026315 -35.414935999337985),149.132904
-35.414982,Heagney Cr before Hambidge Cr,1146,POINT (149.13281300026307 -35.414981999338),149.132813
-35.414421,Benham St Chisholm Shops,1147,POINT (149.1290590002597 -35.41442099933815),149.129059
-35.414482,Benham St opp Chisholm Shops,1148,POINT (149.12922700025982 -35.414481999338136),149.129227
-35.409004,Coyne St after Jackie Howe Cr,1149,POINT (149.12796000025867 -35.40900399933874),149.12796
-35.409157,Coyne St after Isabella Dr,1150,POINT (149.12777700025848 -35.409156999338734),149.127777
-35.409168,Coyne St after Bugden Av,1151,POINT (149.12310800025435 -35.409167999338855),149.123108
-35.409225,Coyne St before Fihelly St,1152,POINT (149.122726000254 -35.40922499933886),149.122726
-35.406963,Bugden Av after Coyne St,1153,POINT (149.120438000252 -35.40696299933914),149.120438
-35.406757,Bugden Av after Larcombe Cr,1154,POINT (149.12046800025198 -35.40675699933917),149.120468
-35.404228,Bugden Av before Demaine Cr,1155,POINT (149.12245200025373 -35.40422799933938),149.122452
-35.404354,Bugden Av after Fihelly St,1156,POINT (149.12196400025329 -35.4043539993394),149.121964
-35.402393,Bugden Av after 2nd Demaine Cr,1157,POINT (149.12413000025518 -35.402392999339526),149.12413
-35.401344,Bugden Av after Mullan St,1158,POINT (149.12355000025468 -35.40134399933966),149.12355
-35.398518,Bugden Av after 2nd Mullan St,1159,POINT (149.12211600025338 -35.39851799933998),149.122116
-35.398529,Bugden Av after Courtice Cl,1160,POINT (149.12219200025348 -35.39852899933998),149.122192
-35.400242,Bugden Av after Dash Cr,1161,POINT (149.1156920002478 -35.40024199933997),149.115692
-35.401436,Bugden Av after Partridge St,1162,POINT (149.11427300024656 -35.40143599933989),149.114273
-35.401321,Bugden Av 2nd after Appel Cr,1163,POINT (149.1127620002453 -35.40132099933994),149.112762
-35.401833,Bugden Av after Maughan Cr,1164,POINT (149.1103060002432 -35.401832999339945),149.110306
-35.401741,Bugden Av after Appel Cr,1165,POINT (149.11001600024295 -35.401740999339964),149.110016
-35.402649,Bugden Av after Sternberg Cr,1166,POINT (149.10748300024082 -35.40264899933993),149.107483
-35.402691,Bugden Av before Sternberg Cr,1167,POINT (149.10755900024088 -35.40269099933994),149.107559
-35.39954,Bugden Av after 2nd Dash Cr,1168,POINT (149.11582900024789 -35.399539999340035),149.115829
-35.398911,Longmore Cr after Angliss Pl,1169,POINT (149.09947200023407 -35.398910999340515),149.099472
-35.40226,Sternberg Cr after Erindale Dr,1170,POINT (149.10328700023732 -35.402259999340075),149.103287
-35.401943,Sternberg Cr after Ashley Dr,1171,POINT (149.10057100023505 -35.401942999340186),149.100571
-35.403648,Comrie St Erindale Centre Plt 1,1172,POINT (149.09916700023388 -35.403647999340016),149.099167
-35.403801,Comrie St opp Erindale Centre Plt 2,1173,POINT (149.09938000023408 -35.40380099934001),149.09938
-35.401993,Sternberg Cr before Erindale Dr,1174,POINT (149.10275300023685 -35.40199299934011),149.102753
-35.403908,McBryde Cr Erindale Centre,1176,POINT (149.09599300023126 -35.40390799934008),149.095993
-35.404015,McBryde Cr opp Erindale Centre,1177,POINT (149.09584000023116 -35.404014999340085),149.09584
-35.405556,Amsinck St after McBryde Cr,1178,POINT (149.0935520002293 -35.40555599933995),149.093552
-35.405602,Amsinck St after Erindale Dr,1179,POINT (149.0932920002291 -35.40560199933997),149.093292
-35.406139,MacKillop College McBryde Cr,1180,POINT (149.0905760002269 -35.40613899933998),149.090576
-35.406265,McBryde Cr opp MacKillop College,1181,POINT (149.0905610002269 -35.40626499933998),149.090561
-35.441864,Woodcock Dr after Covenant CLG,1182,POINT (149.0861820002236 -35.44186399933638),149.086182
-35.441692,Woodcock Dr before Drakeford Dr,1183,POINT (149.0861510002236 -35.441691999336406),149.086151
-35.443043,Clare Dennis Av after Woodcock Dr,1184,POINT (149.08596800022346 -35.44304299933627),149.085968
-35.44516,Clare Dennis Av after Churchill Wy,1185,POINT (149.08779900022492 -35.445159999336),149.087799
-35.44677,Clare Dennis Av after Fred Lane Cr,1186,POINT (149.08607500022353 -35.446769999335864),149.086075
-35.44709,Clare Dennis Av after 2nd Fred Lane Cr,1187,POINT (149.0838470002218 -35.447089999335894),149.083847
-35.448402,Lewis Luxton Av after Preddy Wy,1188,POINT (149.08612100022359 -35.448401999335694),149.086121
-35.450436,Lewis Luxton Av after Flegg Cr,1189,POINT (149.08909600022602 -35.45043599933542),149.089096
-35.452904,Lewis Luxton Av after Sid Barnes Cr,1190,POINT (149.0879670002251 -35.452903999335184),149.087967
-35.458122,Knoke Av opp Gordon Primary School,1191,POINT (149.08612100022367 -35.458121999334686),149.086121
-35.460579,Knoke Av 2nd after Jim Pike Av,1192,POINT (149.08566300022335 -35.46057899933444),149.085663
-35.46228,Knoke Av after Jim Pike Av,1193,POINT (149.0832060002214 -35.46227999933433),149.083206
-35.462017,Jim Pike Av after Knoke St,1194,POINT (149.0799100002188 -35.46201699933442),149.07991
-35.459068,Callaway Cr after 2nd Wootton Cr,1195,POINT (149.0800480002189 -35.459067999334735),149.080048
-35.460037,Callaway Cr after Myles Connell Cr,1196,POINT (149.08174100022023 -35.460036999334584),149.081741
-35.39864,Bugden Av after Chataway Cr,1197,POINT (149.11756900024943 -35.398639999340105),149.117569
-35.398045,Bugden Av after Nicklin Cr,1198,POINT (149.11825600025003 -35.398044999340144),149.118256
-35.464787,Knoke Av after Clem Hill St,1199,POINT (149.08418300022217 -35.46478699933404),149.084183
-35.467258,Knoke Av after 2nd Harry Hopman Cct,1200,POINT (149.08764600022496 -35.46725799933369),149.087646
-35.472809,Knoke Av after Harry Hopman Cct,1201,POINT (149.0892790002263 -35.472808999333076),149.089279
-35.474079,Pockett Av after Bellchambers Cr,1202,POINT (149.0931700002294 -35.47407899933285),149.09317
-35.471703,Pockett Av after Wilson Cr,1203,POINT (149.0969240002325 -35.471702999333004),149.096924
-35.469475,Pockett Av after 2nd Ironbark Cr,1204,POINT (149.0976410002331 -35.46947499933323),149.097641
-35.467556,Pockett Av after Perrin Cct,1205,POINT (149.0953670002312 -35.46755599933348),149.095367
-35.465279,Pockett Av after Box Hill Av,1206,POINT (149.09410100023015 -35.465278999333755),149.094101
-35.463821,Tom Roberts Av before Box Hill,1207,POINT (149.0964970002321 -35.46382099933385),149.096497
-35.465324,Tom Roberts Av opp Conder PS,1208,POINT (149.09840400023364 -35.46532399933363),149.098404
-35.466305,Tom Roberts Av Jane Sutherland St,1210,POINT (149.10560600023965 -35.46630499933337),149.105606
-35.462227,Tom Roberts Av after Chartersville Av,1211,POINT (149.10519400023932 -35.46222699933379),149.105194
-35.461224,Tom Roberts Av 2nd after Box Hill Av,1212,POINT (149.10220300023678 -35.46122399933398),149.102203
-35.460419,Tom Roberts Av after Box Hill Av,1213,POINT (149.09925800023436 -35.460418999334124),149.099258
-35.466404,Tom Roberts Av after Beaumaris St,1214,POINT (149.10041800023532 -35.46640399933347),149.100418
-35.456169,Box Hill Av opp Lanyon Marketplace,1215,POINT (149.09249900022877 -35.45616899933475),149.092499
-35.457714,Box Hill Av opp St. Clare of Assisi Primary,1216,POINT (149.09736600023277 -35.45771399933445),149.097366
-35.456352,Box Hill Av Lanyon Marketplace,1217,POINT (149.09246800022873 -35.456351999334714),149.092468
-35.457981,Box Hill Av St. Clare of Assisi PS,1218,POINT (149.09745800023282 -35.45798099933441),149.097458
-35.460468,Tom Roberts Av before Box Hill Av,1219,POINT (149.09901400023415 -35.460467999334135),149.099014
-35.461296,Tom Roberts Av after John Russell Cct,1220,POINT (149.10180700023648 -35.46129599933397),149.101807
-35.4622,Tom Roberts Av before Lethbridge St,1221,POINT (149.10498000023912 -35.4621999993338),149.10498
-35.464855,Tom Roberts Av Conder Primary School,1223,POINT (149.09797700023327 -35.46485499933369),149.097977
-35.464989,Pockett Av after Bastow Cct,1224,POINT (149.09394800023006 -35.46498899933378),149.093948
-35.46759,Pockett Av after Tregellas Cr,1225,POINT (149.0952760002311 -35.46758999933348),149.095276
-35.470394,Pockett Av 2nd after Brockway Cct,1226,POINT (149.0976560002331 -35.47039399933311),149.097656
-35.472431,Pockett Av Banks Shops,1227,POINT (149.0959470002317 -35.47243099933295),149.095947
-35.473495,Pockett Av after Tharwa Dr,1228,POINT (149.09173600022828 -35.47349499933295),149.091736
-35.472851,Knoke Av after Coventry Cl,1229,POINT (149.08944700022644 -35.47285099933307),149.089447
-35.470764,Knoke Av after Minnett Cl,1230,POINT (149.08889800022598 -35.470763999333286),149.088898
-35.470875,Knoke Av 2nd after Harry Hopman Cct,1231,POINT (149.08879100022588 -35.47087499933329),149.088791
-35.467175,Knoke Av after Matson St,1232,POINT (149.087677000225 -35.4671749993337),149.087677
-35.465672,Knoke Av after Travers St,1233,POINT (149.08558700022328 -35.465671999333914),149.085587
-35.461983,Knoke Av after Cornforth St,1234,POINT (149.08364900022173 -35.46198299933433),149.083649
-35.460663,Knoke Av after Midge St,1235,POINT (149.08572400022337 -35.460662999334424),149.085724
-35.452995,Lewis Luxton Av after Woodcock Dr,1237,POINT (149.0873410002246 -35.45299499933519),149.087341
-35.450897,Lewis Luxton Av after 2nd Cerutty Cr,1238,POINT (149.0893400002262 -35.450896999335356),149.08934
-35.448734,Lewis Luxton Av after Mackney Pl,1239,POINT (149.08714300022442 -35.44873399933564),149.087143
-35.448162,Preddy Wy after Lewis Luxton Av,1240,POINT (149.08419800022207 -35.44816199933578),149.084198
-35.446545,Clare Dennis Av after Noel Ryan Gdn,1241,POINT (149.0854490002231 -35.446544999335906),149.085449
-35.444641,Clare Dennis Av after 2nd Noel Ryan Gdn,1242,POINT (149.08717300022442 -35.44464099933605),149.087173
-35.443119,Clare Dennis Av after Woodfull Lp,1243,POINT (149.08584600022334 -35.44311899933624),149.085846
-35.428791,Barr Smith Av before Drakeford Dr,1244,POINT (149.08219900022038 -35.428790999337835),149.082199
-35.428825,Barr Smith Av after Drakeford Dr,1245,POINT (149.08236700022053 -35.42882499933782),149.082367
-35.340843,Brierly St Cooleman Ct Plt1,1246,POINT (149.05233800019744 -35.340842999347615),149.052338
-35.340981,Streeton Dr before Hindmarsh Dr,1247,POINT (149.05027800019596 -35.340980999347636),149.050278
-35.344681,Streeton Dr after Hindmarsh Dr,1248,POINT (149.04708900019375 -35.344680999347325),149.047089
-35.344612,Streeton Dr South of Hindmarsh Dr,1249,POINT (149.04704300019372 -35.34461199934733),149.047043
-35.346409,Fremantle Dr after Streeton Dr,1250,POINT (149.04693600019363 -35.34640899934713),149.046936
-35.3466,Fremantle Dr before Streeton Dr,1251,POINT (149.04704300019372 -35.346599999347134),149.047043
-35.348286,Fremantle Dr after 2nd McKail Cr,1252,POINT (149.04924000019528 -35.3482859993469),149.04924
-35.347359,Fremantle Dr 3rd after Crowder Cct,1253,POINT (149.04818700019456 -35.34735899934702),149.048187
-35.352146,Namatjira Dr opp St John Vianney,1258,POINT (149.05375700019852 -35.3521459993464),149.053757
-35.355186,Namatjira Dr Northbound after Streeton Dr,1259,POINT (149.0504910001962 -35.35518599934617),149.050491
-35.351921,Namatjira Dr St John Vianney,1260,POINT (149.05415300019885 -35.351920999346405),149.054153
-35.46656,Tom Roberts before McLuckie Cr,1261,POINT (149.10051000023543 -35.46655999933345),149.10051
-35.469933,Wiburd St before Pockett Av,1262,POINT (149.0986630002339 -35.469932999333146),149.098663
-35.355114,Namatjira Dr after Badimara St,1263,POINT (149.0507970001964 -35.35511399934616),149.050797
-35.358479,Namatjira Dr Southbound after Streeton Dr,1264,POINT (149.04792800019442 -35.35847899934588),149.047928
-35.360592,Namatjira Dr before Kapunda St,1265,POINT (149.04780600019433 -35.36059199934566),149.047806
-35.363483,Namatjira Dr after Kapunda St,1266,POINT (149.04971300019568 -35.36348299934533),149.049713
-35.366089,Namatjira Dr 2nd after Kapunda St,1267,POINT (149.051514000197 -35.36608899934502),149.051514
-35.366009,Namatjira Dr 2nd before Drakeford Dr,1268,POINT (149.05136100019692 -35.36600899934502),149.051361
-35.358208,Namatjira Dr after Perry Dr,1269,POINT (149.04788200019436 -35.35820799934591),149.047882
-35.360443,Namatjira Dr after Kapunda St,1270,POINT (149.0476530001942 -35.36044299934568),149.047653
-35.36356,Namatjira Dr 3rd from Drakeford Dr,1271,POINT (149.04960600019564 -35.363559999345306),149.049606
-35.375137,Kambah Pool Rd after Namatjira Dr,1272,POINT (149.04896500019527 -35.37513699934415),149.048965
-35.37534,Kambah Pool Rd after Barritt St,1273,POINT (149.04861500019499 -35.37533999934413),149.048615
-35.377991,Barritt St after Kambah Pool Rd,1274,POINT (149.04837000019484 -35.37799099934385),149.04837
-35.378094,Barritt St before Kambah Pool Rd,1275,POINT (149.04829400019477 -35.37809399934385),149.048294
-35.380211,Barritt St after Bacchus Cct,1276,POINT (149.0518650001973 -35.380210999343554),149.051865
-35.37986,Barritt St after Boddington Cr,1277,POINT (149.05119300019686 -35.3798599993436),149.051193
-35.38121,Boddington Cr 2nd after Carleton St,1278,POINT (149.05177300019727 -35.38120999934346),149.051773
-35.382092,Boddington Cr after Carleton St,1279,POINT (149.0511470001968 -35.38209199934337),149.051147
-35.382088,Boddington Cr after Barritt St,1280,POINT (149.0512850001969 -35.38208799934338),149.051285
-35.385033,Boddington Cr before Castley Cct,1281,POINT (149.05056800019642 -35.38503299934308),149.050568
-35.385777,Boddington Cr after 2nd Crozier Cct,1282,POINT (149.0504150001963 -35.38577699934301),149.050415
-35.389282,Boddington Cr after 2nd Castley Cct,1283,POINT (149.0516360001972 -35.389281999342614),149.051636
-35.389191,Boddington Cr after Bateman St,1284,POINT (149.05136100019703 -35.389190999342624),149.051361
-35.390041,Boddington Cr before McLeod Pl,1285,POINT (149.05365000019867 -35.3900409993425),149.05365
-35.389198,Boddington Cr before O'Halloran Cct,1286,POINT (149.05665600020083 -35.38919799934253),149.056656
-35.390316,Boddington Cr after McLeod Pl,1287,POINT (149.05380200019877 -35.39031599934248),149.053802
-35.389393,Boddington Cr after O'Halloran Cct,1288,POINT (149.05715900020118 -35.38939299934249),149.057159
-35.390377,O'Halloran Cct after Springbett St,1289,POINT (149.05903600020258 -35.390376999342344),149.059036
-35.390362,O'Halloran Cct after 2nd McKillop Cct,1290,POINT (149.05885300020245 -35.39036199934235),149.058853
-35.39291,O'Halloran Cct after 2nd Springbett St,1291,POINT (149.058197000202 -35.392909999342095),149.058197
-35.39312,O'Halloran Cct after 1st McKillop Cct,1292,POINT (149.05801400020187 -35.393119999342076),149.058014
-35.395622,O'Halloran Cct before Snodgrass Cr,1293,POINT (149.05925000020278 -35.395621999341806),149.05925
-35.395813,O'Halloran Cct 2nd after Vansittart Cr,1294,POINT (149.0592800002028 -35.39581299934178),149.05928
-35.39579,O'Halloran Cct after Snodgrass Cr,1295,POINT (149.06288100020544 -35.39578999934171),149.062881
-35.39592,O'Halloran Cct after Vansittart Cr,1296,POINT (149.06289700020545 -35.39591999934168),149.062897
-35.3941,O'Halloran Cct after 2nd Jenke Cct,1297,POINT (149.06591800020772 -35.394099999341805),149.065918
-35.39397,O'Halloran Cct after 2nd Snodgrass Cr,1298,POINT (149.0657960002076 -35.393969999341834),149.065796
-35.393074,O'Halloran Cct opp. Namadgi School,1299,POINT (149.06767300020903 -35.39307399934188),149.067673
-35.414871,Tuggeranong Stn Arrivals,13,POINT (149.0660250002079 -35.41487099933964),149.066025
-35.392578,O'Halloran Cct Namadgi School Kambah,1300,POINT (149.0682070002094 -35.39257799934192),149.068207
-35.391098,Summerland Cct after Vanzetti Cr,1301,POINT (149.07157900021198 -35.39109799934199),149.071579
-35.39098,Summerland Cct before Kingsmill St,1302,POINT (149.0715030002119 -35.390979999341994),149.071503
-35.39003,Summerland Cct after Kingsmill St,1303,POINT (149.07354700021344 -35.39002999934206),149.073547
-35.390171,Summerland Cct after Livingston Av,1304,POINT (149.07348600021342 -35.39017099934204),149.073486
-35.389587,Livingston Av after Cutbush St,1309,POINT (149.0792080002178 -35.38958699934197),149.079208
-35.389343,Livingston Av after Shops,1310,POINT (149.07928500021788 -35.389342999341984),149.079285
-35.388111,Livingston Av after Maxworthy St,1311,POINT (149.08111600021928 -35.38811099934208),149.081116
-35.38797,Livingston Av before Maxworthy St,1312,POINT (149.0812680002194 -35.38796999934208),149.081268
-35.387684,Livingston Av after Symers St,1313,POINT (149.0838320002214 -35.387683999342045),149.083832
-35.387806,Livingston Av after Atkins St,1314,POINT (149.08412200022164 -35.38780599934204),149.084122
-35.388237,Atkins St after Athllon Dr,1315,POINT (149.0857240002229 -35.388236999341956),149.085724
-35.388206,Atkins St after Livingston Av,1316,POINT (149.08589200022305 -35.388205999341956),149.085892
-35.392429,Garratt St opp Wanniassa Shops,1317,POINT (149.08667000022368 -35.392428999341504),149.08667
-35.392551,Garratt St Wanniassa Shops,1318,POINT (149.08653300022357 -35.3925509993415),149.086533
-35.394196,Wheeler Cr after Hyland Pl,1319,POINT (149.08436600022188 -35.39419599934137),149.084366
-35.394894,Wheeler Cr St Anthonys SSO,1320,POINT (149.08001700021848 -35.394893999341406),149.080017
-35.394279,Wheeler Cr after Wanniassa High School,1321,POINT (149.08497600022238 -35.39427899934136),149.084976
-35.394981,Wheeler Cr opp St Anthonys SSO,1322,POINT (149.0799410002184 -35.394980999341406),149.079941
-35.39616,Fincham Cr after Morrissey St,1323,POINT (149.0789030002176 -35.39615999934129),149.078903
-35.396301,Fincham Cr after Wheeler Cr,1324,POINT (149.07913200021778 -35.39630099934128),149.079132
-35.398613,Fincham Cr 2nd after Wheeler Cr,1325,POINT (149.08030700021874 -35.398612999341),149.080307
-35.398903,Fincham Cr after DeGraves Cr,1326,POINT (149.0805210002189 -35.39890299934098),149.080521
-35.401054,Forlonge St after Fincham Cr,1327,POINT (149.08126800021947 -35.40105399934073),149.081268
-35.401413,Forlonge St after Wheeler Cr,1328,POINT (149.0809330002192 -35.40141299934071),149.080933
-35.404076,Wheeler Cr after Annand Pl,1329,POINT (149.08181800021995 -35.404075999340414),149.081818
-35.403996,Wheeler Cr after Derham Cct,1330,POINT (149.08178700021992 -35.40399599934041),149.081787
-35.404007,Wheeler Cr after Riddell Ct,1331,POINT (149.0849150002224 -35.40400699934035),149.084915
-35.404175,Wheeler Cr after Curtain Pl,1332,POINT (149.08435100022191 -35.40417499934034),149.084351
-35.403706,Sternberg Cr after Mackinnon St,1333,POINT (149.0889280002256 -35.403705999340275),149.088928
-35.403545,Sternberg Cr after Sitwell St,1334,POINT (149.0885310002252 -35.40354499934031),149.088531
-35.402386,Sternberg Cr back of MacKillop CLG,1335,POINT (149.09280400022868 -35.40238599934032),149.092804
-35.401199,Sternberg Cr before Wynne St,1336,POINT (149.09498600023042 -35.4011989993404),149.094986
-35.402351,Sternberg Cr after Wheeler Cr,1337,POINT (149.09272800022862 -35.40235099934032),149.092728
-35.401035,Sternberg Cr after Whiteman St,1338,POINT (149.09520000023062 -35.4010349993404),149.0952
-35.401527,Sternberg Cr after Langdon Av,1339,POINT (149.0988620002336 -35.40152699934026),149.098862
-35.40147,Sternberg Cr Erindale Centre,1340,POINT (149.09721400023227 -35.401469999340314),149.097214
-35.377342,Drakeford Dr after Boddington Cr,1341,POINT (149.05619800020042 -35.37734199934375),149.056198
-35.377331,Drakeford Dr after Sulwood Dr,1342,POINT (149.05653400020068 -35.37733099934375),149.056534
-35.378929,Marconi Cr opp Kambah Village,1343,POINT (149.05763200020152 -35.378928999343564),149.057632
-35.379135,Marconi Cr Kambah Village,1344,POINT (149.0577700002016 -35.37913499934352),149.05777
-35.377834,Marconi Cr after Harrington Cct,1345,POINT (149.0606380002037 -35.37783399934361),149.060638
-35.378265,Marconi Cr after Wyselaskie Cct,1346,POINT (149.0601040002033 -35.37826499934357),149.060104
-35.377613,Marconi Cr opp Taylor PS after Sinclair St,1347,POINT (149.0640260002062 -35.377612999343555),149.064026
-35.377739,Marconi Cr Taylor PS,1348,POINT (149.0640560002062 -35.37773899934353),149.064056
-35.378685,Marconi Cr Taylor PS,1349,POINT (149.06535300020718 -35.37868499934342),149.065353
-35.378727,Marconi Cr opp Taylor PS,1350,POINT (149.06549100020732 -35.37872699934341),149.065491
-35.381702,Marconi Cr after Lascelles Cct,1351,POINT (149.06530800020715 -35.38170199934311),149.065308
-35.381401,Marconi Cr after Hutchison Cr,1352,POINT (149.06558200020737 -35.38140099934313),149.065582
-35.383373,Summerland Cct after Marconi Cr,1353,POINT (149.0674740002088 -35.383372999342875),149.067474
-35.383465,Summerland Cct after Gallagher St,1354,POINT (149.0674900002088 -35.38346499934287),149.06749
-35.384914,Summerland Cct after Hutchison Cr,1355,POINT (149.07089200021136 -35.38491399934264),149.070892
-35.385021,Summerland Cct 2nd after Mason St,1356,POINT (149.07113600021157 -35.385020999342615),149.071136
-35.387623,Summerland Cct after Lee Steere Cr,1357,POINT (149.07504300021458 -35.38762299934226),149.075043
-35.387516,Summerland Cct after 2nd Kingsmill St,1358,POINT (149.07492100021446 -35.38751599934228),149.074921
-35.39241,Langdon Av after Dyer Pl,1359,POINT (149.08964500022606 -35.392409999341425),149.089645
-35.392319,Langdon Av after Garrett St,1360,POINT (149.08932500022584 -35.39231899934144),149.089325
-35.392567,Langdon Av after Shackell Pl,1361,POINT (149.0930180002288 -35.39256699934134),149.093018
-35.392174,Langdon Av after Sainsbury St,1362,POINT (149.09368900022935 -35.39217399934135),149.093689
-35.392151,Langdon Av Wanniassa Hills PS,1363,POINT (149.09577900023103 -35.39215099934131),149.095779
-35.392879,Langdon Av opp Wanniassa Hills PS,1364,POINT (149.09655800023165 -35.392878999341214),149.096558
-35.396343,Langdon Av after Gaunson Cr,1365,POINT (149.09639000023157 -35.39634299934087),149.09639
-35.396095,Langdon Av after Kirkton St,1366,POINT (149.0962370002314 -35.396094999340896),149.096237
-35.397873,Langdon Av after Brunton St,1367,POINT (149.09741200023237 -35.397872999340684),149.097412
-35.397755,Langdon Av 2nd after Gaunson Cr,1368,POINT (149.09741200023237 -35.397754999340684),149.097412
-35.400372,Langdon Av after Sternberg Cr,1369,POINT (149.0973970002324 -35.400371999340415),149.097397
-35.400017,Langdon Av after Longmore Cr,1370,POINT (149.09773300023267 -35.40001699934044),149.097733
-35.402576,Drakeford Dr after Mortimer Lewis Dr,1371,POINT (149.07441700021423 -35.40257599934074),149.074417
-35.40123,Drakeford Dr before Taverner St,1372,POINT (149.0745700002143 -35.40122999934088),149.07457
-35.408028,Drakeford Dr after Taverner St,1373,POINT (149.07353200021353 -35.40802799934019),149.073532
-35.408348,Drakeford Dr after Erindale Dr,1374,POINT (149.07307400021318 -35.40834799934016),149.073074
-35.418159,Athllon Dr after Pitman St,1375,POINT (149.0644070002067 -35.41815899933934),149.064407
-35.348743,Hindmarsh Dr after Ball St,1376,POINT (149.08783000022436 -35.34874299934599),149.08783
-35.38707,Sainsbury St before Sullwood Dr,1377,POINT (149.09744300023237 -35.38706999934179),149.097443
-35.387173,Sainsbury St after Sulwood Dr,1378,POINT (149.0976100002325 -35.387172999341786),149.09761
-35.387157,Longmore Cr after Toohey Pl,1379,POINT (149.09608500023126 -35.38715699934182),149.096085
-35.387341,Longmore Cr after Bosisto Pl,1380,POINT (149.0962980002314 -35.387340999341795),149.096298
-35.387634,Longmore Cr after Methven Pl,1381,POINT (149.09367400022927 -35.38763399934183),149.093674
-35.387848,Longmore Cr 2nd after Sainsbury St,1382,POINT (149.09352100022917 -35.38784799934181),149.093521
-35.389038,Longmore Cr after Wilkie Pl,1383,POINT (149.09115600022724 -35.38903799934175),149.091156
-35.389168,Longmore Cr after Strachan Pl,1384,POINT (149.09079000022697 -35.38916799934173),149.09079
-35.389771,Longmore Cr after Lobb Pl,1385,POINT (149.08798200022474 -35.389770999341756),149.087982
-35.38961,Longmore Cr after Langdon Av,1386,POINT (149.0881040002248 -35.389609999341765),149.088104
-35.391071,Vosper St after Livingston Av,1387,POINT (149.07870500021744 -35.391070999341835),149.078705
-35.391132,Vosper St after Athllon Dr,1388,POINT (149.0785060002173 -35.39113199934182),149.078506
-35.411888,Newman-Morris Cct after McIlveen Pl,1391,POINT (149.08174100021992 -35.4118879993396),149.081741
-35.411785,Newman-Morris Cct after 2nd Cuthbertson Cr,1392,POINT (149.08174100021992 -35.411784999339616),149.081741
-35.410217,Newman-Morris Cct after Raphael Cl,1393,POINT (149.0836030002214 -35.41021699933974),149.083603
-35.409718,Newman-Morris Cct after 2nd Nunan Cr,1394,POINT (149.08294700022086 -35.40971799933979),149.082947
-35.408348,Newman-Morris Cct after Farrelly Cl,1395,POINT (149.08219900022024 -35.40834799933996),149.082199
-35.407307,Newman-Morris Cct after Clutterbuck Cr,1396,POINT (149.08119200021946 -35.40730699934009),149.081192
-35.406723,Newman-Morris Cct 2nd before Farrelly Cl,1397,POINT (149.0795750002182 -35.40672299934019),149.079575
-35.406841,Newman-Morris Cct after 2nd Clutterbuck Cr,1398,POINT (149.07759100021667 -35.406840999340204),149.077591
-35.406719,Newman-Morris Cct after Forlonge St,1399,POINT (149.0775300002166 -35.40671899934024),149.07753
-35.407463,Newman-Morris Cct 2nd after Taverner St,1400,POINT (149.0756680002152 -35.40746299934019),149.075668
-35.407219,Newman-Morris Cct after 2nd Singleton Cr,1401,POINT (149.07568400021518 -35.40721899934022),149.075684
-35.410851,Newman-Morris Cct after Dalgarno Cl,1402,POINT (149.07505800021474 -35.410850999339864),149.075058
-35.410988,Newman-Morris Cct before Cuthbertson Cr,1403,POINT (149.0751650002148 -35.41098799933986),149.075165
-35.413456,Newman-Morris Cct after Collocott Cr,1404,POINT (149.07606500021552 -35.41345599933957),149.076065
-35.413536,Newman-Morris Cct 3rd before Cuthbertson Cr,1405,POINT (149.07634000021574 -35.41353599933956),149.07634
-35.412838,Newman-Morris Cct after Cuthbertson Cr,1406,POINT (149.07937600021808 -35.41283799933956),149.079376
-35.413296,Newman-Morris Cct after Maconochie Cr,1407,POINT (149.07862900021752 -35.41329599933954),149.078629
-35.412151,Anketell St Tuggeranong Pool,1408,POINT (149.06318700020577 -35.41215099934),149.063187
-35.40197,Learmonth Dr after Vansittart Cr,1409,POINT (149.06086700020398 -35.40196999934111),149.060867
-35.402084,Learmonth Dr 2nd after Athllon Dr,1410,POINT (149.06077600020393 -35.40208399934109),149.060776
-35.400154,Vansittart Cr after Stieglitz Cct,1411,POINT (149.06260700020528 -35.400153999341256),149.062607
-35.400089,Vansittart Cr after Ragless Cct,1412,POINT (149.06246900020517 -35.400088999341264),149.062469
-35.403179,Learmonth Dr after Athllon Dr,1413,POINT (149.06335400020583 -35.40317899934092),149.063354
-35.403084,Learmonth Dr 2nd after Vansittart Cr,1414,POINT (149.06352200020598 -35.40308399934092),149.063522
-35.397224,Vansittart Cr after 2nd Ragless Cct,1415,POINT (149.06405600020634 -35.39722399934152),149.064056
-35.397461,Vansittart Cr after O'Halloran Cr,1416,POINT (149.0642550002065 -35.3974609993415),149.064255
-35.373047,Tuggeranong Pky after Sulwood Dr,1417,POINT (149.0568850002009 -35.37304699934418),149.056885
-35.372604,Tuggeranong Pky before Sulwood Dr,1418,POINT (149.0574040002013 -35.372603999344214),149.057404
-35.401077,Sternberg Cr Wanniassa Shops,1433,POINT (149.08616600022336 -35.40107699934063),149.086166
-35.401966,Sternberg Cr after Jenner Cct,1434,POINT (149.0867000002238 -35.40196599934051),149.0867
-35.410717,Clive Steele Av before Priddle St,1435,POINT (149.1006930002352 -35.410716999339265),149.100693
-35.410892,Clive Steele Av after Ashley Dr,1436,POINT (149.1007230002352 -35.41089199933925),149.100723
-35.412361,Clive Steele Av after Brain St,1437,POINT (149.10002100023465 -35.412360999339114),149.100021
-35.412884,Clive Steele Av between Brain St,1438,POINT (149.09936500023414 -35.41288399933908),149.099365
-35.414112,Clive Steele Av after Fraenkel St,1439,POINT (149.0970460002322 -35.41411199933901),149.097046
-35.41444,Clive Steele Av after Coode St,1440,POINT (149.09674100023196 -35.41443999933897),149.096741
-35.417061,Cockcroft Av after Barraclough Cr,1441,POINT (149.09823600023321 -35.417060999338666),149.098236
-35.41674,Cockcroft Av before Barraclough Cr,1442,POINT (149.0982060002332 -35.416739999338695),149.098206
-35.419884,Cockcroft Av before Kneeshaw St,1443,POINT (149.09730500023247 -35.41988399933841),149.097305
-35.41975,Cockcroft Av after Isabella Dr,1444,POINT (149.09704600023224 -35.41974999933842),149.097046
-35.416283,Charleston St after William Hudson Cr,1445,POINT (149.07917800021798 -35.41628299933921),149.079178
-35.416264,Charleston St after Blakey Cl,1446,POINT (149.07936100021809 -35.41626399933919),149.079361
-35.418194,Charleston St after Clive Steele Av,1447,POINT (149.0824430002205 -35.418193999338925),149.082443
-35.418091,Charleston St after Hallstrom Cct,1448,POINT (149.08241300022053 -35.41809099933895),149.082413
-35.416676,Clive Steele Av after Charleston St,1449,POINT (149.08621200022347 -35.416675999339),149.086212
-35.416611,Clive Steele Av after Harkness St,1450,POINT (149.08653300022374 -35.416610999339014),149.086533
-35.416241,Clive Steele Av after Balsillie Cr,1451,POINT (149.0880130002249 -35.416240999338996),149.088013
-35.416298,Clive Steele Av before Harkness St,1452,POINT (149.0883640002252 -35.41629799933899),149.088364
-35.41534,Corlette Cr Monash Primary,1453,POINT (149.08956900022616 -35.41533999933905),149.089569
-35.414165,Corlette Cr after Hebblewhite St,1454,POINT (149.08757000022453 -35.41416499933923),149.08757
-35.418907,Hambidge Cr after Goldstein Cr,1455,POINT (149.11998000025167 -35.41890699933792),149.11998
-35.414787,Corlette Cr opp Monash Primary,1456,POINT (149.08897400022568 -35.41478699933913),149.088974
-35.41423,Corlette Cr before Hebblewhite St,1457,POINT (149.0872650002243 -35.41422999933923),149.087265
-35.411987,Hebblewhite St after Forwood St,1458,POINT (149.0876620002246 -35.41198699933945),149.087662
-35.412098,Hebblewhite St after Twine Pl,1459,POINT (149.0874020002244 -35.41209799933945),149.087402
-35.410713,Harricks Cr after Michell St,1460,POINT (149.09117100022743 -35.410712999339495),149.091171
-35.410767,Harricks Cr after Beirne St,1461,POINT (149.09088100022717 -35.41076699933951),149.090881
-35.408806,Harricks Cr after Cracknell St,1462,POINT (149.09268200022862 -35.40880599933965),149.092682
-35.408936,Harricks Cr 2nd after Beirne St,1463,POINT (149.09245300022846 -35.40893599933965),149.092453
-35.405373,MacKinnon St opp MacKillop College,1464,POINT (149.08950800022606 -35.405372999340074),149.089508
-35.405319,MacKinnon St MacKillop College,1465,POINT (149.08964500022614 -35.405318999340096),149.089645
-35.402336,Wheeler Cr after Sternberg Cr,1466,POINT (149.09178200022785 -35.40233599934035),149.091782
-35.400528,Wheeler Cr after Keys Cr,1467,POINT (149.0892330002258 -35.400527999340596),149.089233
-35.402092,Wheeler Cr before Sternberg Cr,1468,POINT (149.09179700022787 -35.40209199934038),149.091797
-35.40041,Wheeler Cr after Halfrey Cct,1469,POINT (149.08929400022583 -35.40040999934062),149.089294
-35.398151,Wheeler Cr after Guthridge Cr,1470,POINT (149.0883790002251 -35.39815099934087),149.088379
-35.398117,Wheeler Cr after Kirkton St,1471,POINT (149.08848600022517 -35.39811699934087),149.088486
-35.394802,Wheeler Cr Wanniassa HS,1472,POINT (149.0866850002237 -35.39480199934125),149.086685
-35.394653,Wheeler Cr after Garratt St,1473,POINT (149.08659400022364 -35.39465299934127),149.086594
-35.397469,Kirkton St after Wheeler Cr,1474,POINT (149.08995100022636 -35.39746899934091),149.089951
-35.397537,Kirkton St after Balfour Cr,1475,POINT (149.0901640002265 -35.397536999340886),149.090164
-35.39727,Kirkton St after Holden Cr,1476,POINT (149.09478800023024 -35.39726999934081),149.094788
-35.397308,Kirkton St after Embling St,1477,POINT (149.09419300022978 -35.39730799934082),149.094193
-35.388088,Longmore Cr after Sainsbury St,1484,POINT (149.09797700023276 -35.38808799934168),149.097977
-35.388493,Longmore Cr North of Gaunson Cr,1485,POINT (149.09829700023306 -35.38849299934162),149.098297
-35.42474,Clift Cr after Ashley Dr,1486,POINT (149.10401900023805 -35.42473999933773),149.104019
-35.424896,Clift Cr 3rd after Rohan St,1487,POINT (149.1040500002381 -35.424895999337714),149.10405
-35.426281,Clift Cr after Kiddle Cr,1488,POINT (149.1070560002406 -35.42628099933751),149.107056
-35.426373,Clift Cr 2nd after Rohan St,1489,POINT (149.1070400002406 -35.42637299933748),149.10704
-35.427563,Clift Cr 2nd after Kiddle Cr,1490,POINT (149.10958900024275 -35.42756299933729),149.109589
-35.427624,Clift Cr after Rohan St,1491,POINT (149.10978700024296 -35.42762399933728),149.109787
-35.426281,Clift Cr before Heagney Cr,1492,POINT (149.11228900024506 -35.42628099933737),149.112289
-35.426308,Clift Cr after Heagney Cr,1493,POINT (149.1124730002452 -35.42630799933734),149.112473
-35.425385,Heagney Cr after Clift Cr,1494,POINT (149.1140750002466 -35.42538499933741),149.114075
-35.42524,Heagney Cr after McLorinan St,1495,POINT (149.11428800024675 -35.42523999933743),149.114288
-35.42276,Beattie Cr after McBurney Cr,1496,POINT (149.1120150002448 -35.42275999933773),149.112015
-35.423058,Beattie Cr before Swanton St,1497,POINT (149.11218300024495 -35.423057999337686),149.112183
-35.420982,Beattie Cr after Hemmings Cr,1498,POINT (149.1136170002462 -35.42098199933787),149.113617
-35.420963,Beattie Cr after Gibbons St,1499,POINT (149.1138610002464 -35.42096299933786),149.113861
-35.418312,Beattie Cr after Goldstein Cr,1500,POINT (149.11557000024783 -35.418311999338094),149.11557
-35.418602,Beattie Cr after Longman St,1501,POINT (149.11521900024752 -35.41860199933807),149.115219
-35.414661,Bugden Av after Kellett St,1502,POINT (149.11250300024517 -35.41466099933857),149.112503
-35.41452,Bugden Av after Castleton Cr,1503,POINT (149.11286900024544 -35.41451999933855),149.112869
-35.413868,Castleton Cr Gowrie Shops,1504,POINT (149.10932900024247 -35.41386799933873),149.109329
-35.414013,Castleton Cr opp Gowrie Shops,1505,POINT (149.1093900002425 -35.4140129993387),149.10939
-35.412067,Castleton Cr after 2nd Wheatley St,1506,POINT (149.10580400023946 -35.412066999339004),149.105804
-35.41198,Castleton Cr after Coningham St,1507,POINT (149.10556000023925 -35.41197999933901),149.10556
-35.409962,Castleton Cr after 2nd Coningham St,1508,POINT (149.10488900023867 -35.40996199933924),149.104889
-35.410091,Castleton Cr after Wheatley St,1509,POINT (149.10496500023874 -35.410090999339225),149.104965
-35.407349,Castleton Cr after Farcomb Pl,1510,POINT (149.10646100023996 -35.40734899933946),149.106461
-35.407181,Castleton Cr after Middleton Cct,1511,POINT (149.10650600024002 -35.40718099933949),149.106506
-35.406055,Castleton Cr after Peeler Pl,1512,POINT (149.11105300024386 -35.40605499933949),149.111053
-35.406197,Castleton Cr after Partridge St,1513,POINT (149.111206000244 -35.40619699933947),149.111206
-35.405716,Partridge St after Castleton Cr,1514,POINT (149.11373900024617 -35.405715999339456),149.113739
-35.40575,Partridge St after Garrick St,1515,POINT (149.1138150002462 -35.40574999933945),149.113815
-35.403248,Partridge St after Airey Cr,1516,POINT (149.1158290002479 -35.403247999339655),149.115829
-35.402653,Partridge St after Bulcock Pl,1517,POINT (149.11607400024818 -35.402652999339715),149.116074
-35.398781,Longmore Cr after Cruikshank St,1518,POINT (149.09935000023398 -35.39878099934054),149.09935
-35.398785,Longmore Cr after Petit Pl,1519,POINT (149.10292100023696 -35.398784999340435),149.102921
-35.398918,Longmore Cr before Pettit Pl,1520,POINT (149.10281400023686 -35.39891799934043),149.102814
-35.396854,Longmore Cr after Harker Pl,1521,POINT (149.10409500023792 -35.39685399934061),149.104095
-35.397308,Longmore Cr 4th after Gaunson St,1522,POINT (149.10415600023796 -35.39730799934057),149.104156
-35.39502,Longmore Cr & McKenna St,1523,POINT (149.1034700002374 -35.395019999340825),149.10347
-35.395367,Longmore Cr Backing Sulwood Dr,1524,POINT (149.10374500023764 -35.39536699934078),149.103745
-35.39286,Longmore Cr after McKenna St,1525,POINT (149.10197400023614 -35.39285999934108),149.101974
-35.392956,Longmore Cr 2nd from Gaunson Cr,1526,POINT (149.1020970002362 -35.39295599934106),149.102097
-35.390842,Longmore Cr after Bindon Pl,1527,POINT (149.100647000235 -35.390841999341326),149.100647
-35.390701,Longmore Cr South of Gaunson Cr,1528,POINT (149.10069300023505 -35.390700999341334),149.100693
-35.414471,Bugden Av after Ashley Dv,1529,POINT (149.10453800023842 -35.414470999338775),149.104538
-35.414684,Bugden Av after Herington St,1530,POINT (149.10459900023847 -35.414683999338756),149.104599
-35.417137,Bugden Av after Dalziel St,1531,POINT (149.1048580002387 -35.417136999338496),149.104858
-35.416935,Bugden Av after Stacey St,1532,POINT (149.10478200023863 -35.41693499933853),149.104782
-35.418079,Bugden Av after 2nd Dalziel St,1533,POINT (149.10739100024082 -35.41807899933832),149.107391
-35.417953,Bugden Av after 2nd Galleghan Cct,1534,POINT (149.1078490002412 -35.417952999338326),149.107849
-35.41581,Bugden Av after Beardsmore Pl,1535,POINT (149.1098330002429 -35.41580999933851),149.109833
-35.41573,Bugden Av after Galleghan Cct,1536,POINT (149.11004600024307 -35.41572999933851),149.110046
-35.416851,Norriss St after 1st Woodburn St,1537,POINT (149.1177670002497 -35.4168509993382),149.117767
-35.416912,Norriss St after Woodburn St,1538,POINT (149.1179660002499 -35.41691199933819),149.117966
-35.416431,Norriss St after 2nd Woodburn St,1539,POINT (149.1210330002526 -35.41643099933817),149.121033
-35.416576,Norriss St after Kirkcaldie Cct,1540,POINT (149.12083400025242 -35.41657599933816),149.120834
-35.407082,Newman-Morris Cct before Farrelly Cl,1541,POINT (149.08103900021933 -35.40708199934012),149.081039
-35.416042,Hambidge Cr before Proctor St,1542,POINT (149.13018800026072 -35.416041999337956),149.130188
-35.418266,Hambidge Cr before Baskerville St,1543,POINT (149.12721300025805 -35.418265999337805),149.127213
-35.418098,Hambidge Cr after Baskerville St,1544,POINT (149.12733500025814 -35.41809799933781),149.127335
-35.416603,Hambidge Cr after Alice Jackson Cr,1545,POINT (149.1298520002604 -35.41660299933791),149.129852
-35.419529,Baskerville St after Hambidge Cr,1546,POINT (149.12542700025648 -35.41952899933772),149.125427
-35.419582,Baskerville St after Lucy Gullett Cct,1547,POINT (149.12533600025642 -35.41958199933771),149.125336
-35.42205,Baskerville St after Heagney Cr,1548,POINT (149.12439000025557 -35.42204999933749),149.12439
-35.421959,Baskerville St after Purbrick St,1549,POINT (149.12452700025568 -35.421958999337505),149.124527
-35.424282,Heagney Cr after Alston St,1550,POINT (149.12347400025476 -35.424281999337275),149.123474
-35.424408,Heagney Cr after Muntz St,1551,POINT (149.12368800025496 -35.42440799933726),149.123688
-35.424252,Heagney Cr after Goldstein Cr,1552,POINT (149.1213380002529 -35.424251999337336),149.121338
-35.424343,Heagney Cr after 2nd Muntz St,1553,POINT (149.12126200025287 -35.424342999337334),149.121262
-35.424313,Heagney Cr after 2nd Mofflin St,1554,POINT (149.1174470002495 -35.424312999337424),149.117447
-35.424198,Heagney Cr after 2nd McLorinan St,1555,POINT (149.11720300024928 -35.42419799933744),149.117203
-35.427258,Clift Cr Richardson Shops,1556,POINT (149.1157990002481 -35.42725799933717),149.115799
-35.428669,Clift Cr after Deamer Cr,1557,POINT (149.11850000025046 -35.428668999336956),149.1185
-35.428604,Clift Cr before Meeson St,1558,POINT (149.1185760002505 -35.42860399933696),149.118576
-35.427334,Clift Cr opp Richardson Shops,1559,POINT (149.11599700024826 -35.42733399933716),149.115997
-35.41769,Louisa Lawson Cr before Gellatly Pl,1560,POINT (149.13722200026714 -35.4176899993376),149.137222
-35.417599,Louisa Lawson Cr after May Maxwell Cr,1561,POINT (149.13725300026712 -35.417598999337606),149.137253
-35.416145,Louisa Lawson Cr after Fenston Pl,1562,POINT (149.13943500026915 -35.4161449993377),149.139435
-35.416088,Louisa Lawson Cr before Fenston Pl,1563,POINT (149.13935900026908 -35.4160879993377),149.139359
-35.412315,Louisa Lawson Cr before Aronson Cr,1564,POINT (149.13751200026735 -35.41231499933815),149.137512
-35.412258,Louisa Lawson Cr after 2nd Willoughby Cr,1565,POINT (149.13740500026725 -35.41225799933816),149.137405
-35.41251,Louisa Lawson Cr after Willoughby Cr,1566,POINT (149.13526900026528 -35.4125099993382),149.135269
-35.412579,Louisa Lawson Cr after Aronson Cr,1567,POINT (149.13510100026514 -35.41257899933818),149.135101
-35.413876,Louisa Lawson Cr before 2nd Aronson Cr,1568,POINT (149.13299600026323 -35.4138759993381),149.132996
-35.413853,Louisa Lawson Cr after Heagney Cr,1569,POINT (149.13290400026315 -35.41385299933811),149.132904
-35.418156,Goldstein Cr after Norriss St,1574,POINT (149.116928000249 -35.41815599933807),149.116928
-35.418201,Goldstein Cr 2nd after Wolstenholme St,1575,POINT (149.11666900024878 -35.41820099933809),149.116669
-35.436523,Duggan St after Outtrim Av,1576,POINT (149.0977480002329 -35.43652299933665),149.097748
-35.436485,Duggan St after Pennington Cr,1577,POINT (149.0976100002328 -35.43648499933665),149.09761
-35.404247,Newman-Morris Cct before Taverner St,1596,POINT (149.07748400021654 -35.404246999340494),149.077484
-35.404263,Newman-Morris Cct after Taverner St,1597,POINT (149.07760600021666 -35.40426299934048),149.077606
-35.407417,McBryde Cr after Bromley St,1599,POINT (149.08708200022411 -35.407416999339944),149.087082
-35.407528,McBryde Cr Trinity Christian School,1600,POINT (149.0868380002239 -35.40752799933993),149.086838
-35.441238,Casey Cr Calwell High School,1606,POINT (149.11688200024912 -35.44123799933568),149.116882
-35.406727,Laurens St after Taverner St,1630,POINT (149.0842900002219 -35.40672699934007),149.08429
-35.406872,Laurens St Trinity Christian PS,1631,POINT (149.08432000022194 -35.40687199934007),149.08432
-35.343933,Hindmarsh Dr Weston Creek Terminus,1637,POINT (149.02766400018038 -35.3439329993478),149.027664
-35.474491,Forsythe St before Pockett Av,1638,POINT (149.0947110002307 -35.474490999332765),149.094711
-35.474525,Forsythe St after Pockett Av,1639,POINT (149.0949250002309 -35.47452499933276),149.094925
-35.388977,Mt Vernon Dr Gleneagles,1640,POINT (149.03248600018387 -35.388976999343065),149.032486
-35.416332,Barraclough Cr opp Retirement Village,1642,POINT (149.09625200023157 -35.41633199933878),149.096252
-35.442654,Lawrence Wackett Cr after Scantlebury Cr,1650,POINT (149.1227870002543 -35.44265399933539),149.122787
-35.416279,Barraclough Cr Retirement Village,1651,POINT (149.09590100023127 -35.416278999338815),149.095901
-35.432228,Barr Smith Av after Derrington Cr,1660,POINT (149.07664500021608 -35.43222799933761),149.076645
-35.431019,Barr Smith Av 2nd after Derrington Cr,1661,POINT (149.07484400021468 -35.43101899933777),149.074844
-35.373367,Sulwood Dr Kambah Fire Station,1662,POINT (149.0548250001994 -35.37336699934419),149.054825
-35.373409,Sulwood Dr opp Kambah Fire Station,1663,POINT (149.05467200019933 -35.37340899934419),149.054672
-35.458172,Knoke Av Gordon Primary School,1666,POINT (149.08624300022376 -35.45817199933468),149.086243
-35.438992,Duggan St 2nd after Outtrim Av,1667,POINT (149.09828200023338 -35.43899199933637),149.098282
-35.439075,Duggan St 2nd after Beckett St,1668,POINT (149.09820600023335 -35.43907499933638),149.098206
-35.419868,Clive Steele Av 2nd after Isabella Dr,1669,POINT (149.08564800022305 -35.41986799933868),149.085648
-35.419968,Clive Steele Av after Charleston St,1670,POINT (149.08586100022325 -35.41996799933867),149.085861
-35.42136,Clive Steele Av after Isabella Dr,1671,POINT (149.08859300022542 -35.42135999933845),149.088593
-35.421375,Clive Steele Av after Falconer St,1672,POINT (149.08874500022552 -35.42137499933845),149.088745
-35.47514,Forsythe St after Bellchambers Cr,1675,POINT (149.09762600023308 -35.47513999933262),149.097626
-35.47488,Forsythe St after Smeaton Cct North Entry,1676,POINT (149.09715300023268 -35.47487999933267),149.097153
-35.476551,Forsythe St after Olive Pink Cr,1677,POINT (149.09979200023488 -35.476550999332424),149.099792
-35.476444,Forsythe St after Smeaton Cct South Entry,1678,POINT (149.0998080002349 -35.47644399933245),149.099808
-35.475243,Forsythe St after 2nd Alison Ashby Cr,1679,POINT (149.10107400023597 -35.47524299933254),149.101074
-35.474991,Forsythe St 2nd after Smeaton Cct,1680,POINT (149.1009060002358 -35.47499099933257),149.100906
-35.472401,Paperbark St after Galbraith Cl,1681,POINT (149.10321000023768 -35.47240099933277),149.10321
-35.472404,Paperbark St after Troughton St,1682,POINT (149.10310400023764 -35.472403999332776),149.103104
-35.4692,Paperbark St before 2nd Kettlewell Cr,1683,POINT (149.1046750002389 -35.46919999933308),149.104675
-35.469856,Paperbark St 2nd after Troughton St,1684,POINT (149.1044310002387 -35.46985599933301),149.104431
-35.468349,Paperbark St after Kettlewell Cr,1685,POINT (149.10568200023974 -35.468348999333145),149.105682
-35.468243,Paperbark St before Jane Sutherland St,1686,POINT (149.10598800024 -35.46824299933314),149.105988
-35.46389,Templestowe Av after Eaglemont Rt,1687,POINT (149.11134300024452 -35.46388999933345),149.111343
-35.463829,Templestowe Av after Morison St,1688,POINT (149.1112060002444 -35.463828999333465),149.111206
-35.462639,Templestowe Av 2nd after Barringer St,1689,POINT (149.1097870002432 -35.46263899933364),149.109787
-35.462749,Templestowe Av 2nd after Jane Sutherland St,1690,POINT (149.10949700024295 -35.46274899933363),149.109497
-35.462498,Templestowe Av after Barringer St,1691,POINT (149.1079250002416 -35.46249799933369),149.107925
-35.462227,Templestowe Av 3rd after Jane Sutherland St,1692,POINT (149.10719300024098 -35.46222699933374),149.107193
-35.432178,Barr Smith Av before Kingscote Cr,1696,POINT (149.0767970002162 -35.432177999337604),149.076797
-35.430954,Barr Smith Av 2nd after Coombe St,1697,POINT (149.07507300021484 -35.43095399933778),149.075073
-35.410007,Bugden Av opp Holy Family PS,1698,POINT (149.11839300025022 -35.4100069993389),149.118393
-35.410011,Bugden Av Holy Family PS,1699,POINT (149.1182710002501 -35.4100109993389),149.118271
-35.278553,City Bus Stn Arrivals,1723,POINT (149.13060000026 -35.278552999352115),149.1306
-35.348011,Palmer St after Bateson St,1733,POINT (149.1028140002365 -35.348010999345696),149.102814
-35.34602,Canberra Hospital after Gilmore Cr,1734,POINT (149.1019440002358 -35.34601999934593),149.101944
-35.326233,Barrier St after Pirie St,1766,POINT (149.16751100029532 -35.32623299934619),149.167511
-35.32769,Barrier St after Isa St,1768,POINT (149.17022700029807 -35.327689999345964),149.170227
-35.326447,Barrier St before Pirie St,1770,POINT (149.168198000296 -35.32644699934615),149.168198
-35.327766,Barrier St before Isa St,1771,POINT (149.1706090002985 -35.32776599934594),149.170609
-35.325413,Newcastle St after Isa St,1772,POINT (149.17259200030043 -35.32541299934612),149.172592
-35.246441,Battye St after Watkins,1776,POINT (149.09698500023103 -35.246440999356246),149.096985
-35.182709,Anthony Rolfe Av after Gundaroo Rd,1790,POINT (149.1304320002591 -35.182708999361864),149.130432
-35.385384,Summerland Cct after Mannheim St,1791,POINT (149.07331800021325 -35.38538399934253),149.073318
-35.385437,Summerland Cct Village Creek Primary,1792,POINT (149.07324200021316 -35.385436999342545),149.073242
-35.321682,North Weston Park & Ride,1802,POINT (149.05828900020165 -35.32168199934944),149.058289
-35.414719,Tuggeranong Stn Plt 3,1803,POINT (149.0657650002077 -35.41471899933967),149.065765
-35.414421,Tuggeranong Stn Plt 4,1804,POINT (149.06555200020756 -35.4144209993397),149.065552
-35.414581,Tuggeranong Stn Plt 7,1807,POINT (149.06538400020742 -35.41458099933969),149.065384
-35.414917,Tuggeranong Stn Plt 8,1808,POINT (149.06565900020766 -35.41491699933965),149.065659
-35.32259,Opp North Weston Park & Ride,1809,POINT (149.05761700020116 -35.322589999349354),149.057617
-35.412277,Anketell St opp Tuggeranong Pool,1810,POINT (149.06330900020583 -35.41227699933999),149.063309
-35.453056,Chippindall Cct Theodore Terminus Off Street,1811,POINT (149.11856100025068 -35.453055999334396),149.118561
-35.429012,Barr Smith Av before Burgoyne Cr,1815,POINT (149.0745850002145 -35.42901199933798),149.074585
-35.428802,Barr Smith Av after Coombe St,1816,POINT (149.0747380002146 -35.428801999338),149.074738
-35.279144,City West Platform 1,1821,POINT (149.12558000025555 -35.27914399935219),149.12558
-35.296085,IKEA Majura Rd after Spitfire Av,1825,POINT (149.18769800031575 -35.29608499934867),149.187698
-35.346191,Burnie St before Launceston,1901,POINT (149.07461500021398 -35.346190999346554),149.074615
-35.461906,Callaway Cr after 2nd Myles Connell Cr,1903,POINT (149.08223000022062 -35.46190599933438),149.08223
-35.463902,Knoke Av after Mina Wylie Cr,1904,POINT (149.08317600022136 -35.46390199933414),149.083176
-35.391052,Langdon Av Wanniassa Shops,1905,POINT (149.08677700022378 -35.39105199934164),149.086777
-35.391087,Langdon Av opp Wanniassa Shops,1906,POINT (149.0869450002239 -35.391086999341624),149.086945
-35.402611,Athllon Dr after Learmonth Dr,2,POINT (149.06474300020685 -35.40261099934094),149.064743
-35.353077,Egglestone after Maclaurin,2000,POINT (149.0805210002186 -35.3530769993457),149.080521
-35.340801,Launceston St opp Phillip Oval,2002,POINT (149.0844570002216 -35.340800999346875),149.084457
-35.335697,Theodore St before James St,2003,POINT (149.08125300021908 -35.33569699934749),149.081253
-35.333496,Theodore St before 2nd James St,2004,POINT (149.0797420002179 -35.33349599934774),149.079742
-35.330509,Carruthers St after Theodore St,2005,POINT (149.07772800021633 -35.33050899934809),149.077728
-35.327663,Carruthers St after 2nd McCormack St,2006,POINT (149.07559200021464 -35.32766299934844),149.075592
-35.324566,Carruthers St after Jennings St,2007,POINT (149.0755770002146 -35.32456599934877),149.075577
-35.322987,Throssell St after Kennerley St,2008,POINT (149.07481400021402 -35.322986999348934),149.074814
-35.321159,Throssell St after Jennings St,2009,POINT (149.07492100021406 -35.32115899934912),149.074921
-35.319389,Throssell St after O'Shanassy St,2010,POINT (149.0770420002157 -35.31938899934926),149.077042
-35.318748,Dunstan St after Throssell St,2011,POINT (149.08024600021818 -35.31874799934924),149.080246
-35.321609,McCulloch St after Morgan Cr,2012,POINT (149.08195500021952 -35.32160899934891),149.081955
-35.323189,McCulloch St after 2nd Morgan Cr,2013,POINT (149.08258100022005 -35.32318899934873),149.082581
-35.324608,Carruthers St opp Curtin Shops,2014,POINT (149.08277900022017 -35.324607999348586),149.082779
-35.325516,Carruthers St after Allan St,2015,POINT (149.08502200022198 -35.325515999348454),149.085022
-35.326916,Carruthers St before Groom St,2016,POINT (149.09001200022593 -35.32691599934817),149.090012
-35.325825,Carruthers St after Yarra Glen,2017,POINT (149.08523600022212 -35.32582499934842),149.085236
-35.324993,Carruthers St Curtin Shops,2018,POINT (149.08300800022036 -35.32499299934854),149.083008
-35.323288,McCulloch St after Carruthers St,2019,POINT (149.08239700021988 -35.32328799934872),149.082397
-35.320927,McCulloch St after Reynolds St,2020,POINT (149.08158900021925 -35.320926999348984),149.081589
-35.318863,Dunstan St after McCulloch St,2021,POINT (149.08023100021816 -35.318862999349236),149.080231
-35.319477,Throssell St after Dunstan St,2022,POINT (149.07698100021562 -35.31947699934924),149.076981
-35.321522,Throssell St after 2nd Robertson St,2023,POINT (149.07495100021413 -35.32152199934909),149.074951
-35.32304,Throssell St after Storey St,2024,POINT (149.07495100021413 -35.32303999934894),149.074951
-35.324711,Carruthers St after Throssell St,2025,POINT (149.0756530002147 -35.32471099934875),149.075653
-35.327789,Carruthers St after Nelson Pl,2026,POINT (149.0757900002148 -35.32778899934843),149.07579
-35.330288,Carruthers St before Curtin Primary School,2027,POINT (149.07768200021627 -35.33028799934812),149.077682
-35.333687,Theodore St after roundabout,2028,POINT (149.07988000021797 -35.33368699934771),149.07988
-35.335556,Theodore St before Holman St South Entry,2029,POINT (149.08125300021908 -35.33555599934749),149.081253
-35.338596,Marrawah St after Theodore St,2030,POINT (149.0820310002197 -35.33859599934718),149.082031
-35.340664,Launceston St Phillip Oval,2031,POINT (149.08471700022184 -35.34066399934689),149.084717
-35.339085,Melrose Drive opp Phillip Pool,2032,POINT (149.0828090002203 -35.33908499934709),149.082809
-35.339214,Melrose Drive Phillip Pool,2033,POINT (149.08311500022054 -35.33921399934707),149.083115
-35.37225,Beasley St after Gouger St,2034,POINT (149.08979800022604 -35.372249999343516),149.089798
-35.371876,Beasley St Torrens PS,2035,POINT (149.09066800022677 -35.37187599934354),149.090668
-35.371948,Beasley St after Lambrigg St,2036,POINT (149.09547400023064 -35.37194799934342),149.095474
-35.371864,Beasley St after Athllon Dr,2037,POINT (149.09549000023068 -35.37186399934341),149.09549
-35.358505,Badimara St after Yambina St,2038,POINT (149.0601200002032 -35.35850499934562),149.06012
-35.371719,Beasley St before Wilkins St,2039,POINT (149.0981290002328 -35.37171899934336),149.098129
-35.370605,Wilkins St after Hoadley St,2040,POINT (149.09962500023406 -35.37060499934345),149.099625
-35.370502,Wilkins St after Beasley St,2041,POINT (149.09942600023388 -35.37050199934347),149.099426
-35.368164,Heard St after Wilkins St,2042,POINT (149.0976870002324 -35.36816399934375),149.097687
-35.368034,Heard St before Wilkins St,2043,POINT (149.0975800002323 -35.36803399934377),149.09758
-35.365578,Heard St opp Southlands Shops,2044,POINT (149.09542800023056 -35.36557799934406),149.095428
-35.365471,Heard St Southlands Shops,2045,POINT (149.09532200023048 -35.36547099934408),149.095322
-35.365704,Beasley St after Pethebridge St,2046,POINT (149.08866900022514 -35.36570399934421),149.088669
-35.365837,Beasley St after Batchelor St,2047,POINT (149.08853100022498 -35.3658369993442),149.088531
-35.366627,Beasley St Sacred Heart PS,2048,POINT (149.08494600022215 -35.36662699934421),149.084946
-35.366539,Beasley St after Parkin St,2049,POINT (149.08543400022253 -35.36653899934421),149.085434
-35.363041,Macfarland Cr Pearce Shops,2050,POINT (149.08143600021938 -35.36304099934466),149.081436
-35.351856,Nemarang Cr after Larakia St,2052,POINT (149.06390400020595 -35.35185599934623),149.063904
-35.366272,Hodgson Cr after Murphy Cr,2053,POINT (149.08252000022023 -35.366271999344306),149.08252
-35.366257,Hodgson Cr after Brinsmead St,2054,POINT (149.0823210002201 -35.36625699934431),149.082321
-35.358231,Macfarland Cr 2nd after Threlfall St,2055,POINT (149.07566800021488 -35.358230999345295),149.075668
-35.358116,Macfarland Cr after Wilsmore Cr,2056,POINT (149.07550000021476 -35.3581159993453),149.0755
-35.361305,Macfarland Cr after Collings St,2057,POINT (149.0779880002167 -35.36130499934494),149.077988
-35.361504,Macfarland Cr after Parkhill St,2058,POINT (149.0780490002167 -35.3615039993449),149.078049
-35.355621,Macfarland Cr after Waldock St,2059,POINT (149.07524100021453 -35.35562099934557),149.075241
-35.355736,Macfarland Cr after 1st Threlfall St,2060,POINT (149.0753330002146 -35.355735999345555),149.075333
-35.352531,Eggleston Cr Chifley Shops,2061,POINT (149.07553100021477 -35.35253099934588),149.075531
-35.35215,Eggleston Cr opp Chifley Shops,2062,POINT (149.07530200021455 -35.35214999934593),149.075302
-35.349594,Eggleston Cr after MacDonald St,2063,POINT (149.0761410002152 -35.349593999346176),149.076141
-35.349674,Eggleston Cr after Plunkett St,2064,POINT (149.07618700021524 -35.349673999346166),149.076187
-35.346676,Launceston St before Dennes Pl,2065,POINT (149.07412700021362 -35.34667599934651),149.074127
-35.34341,Launceston St after Tarraleah Cr,2067,POINT (149.0745240002139 -35.34340999934684),149.074524
-35.342861,Launceston St after Port Arthur St,2068,POINT (149.07467700021402 -35.34286099934689),149.074677
-35.339706,Launceston St Lyons Shops,2069,POINT (149.07698100021577 -35.33970599934717),149.076981
-35.340408,Launceston St Lyons PS,2070,POINT (149.0764770002154 -35.34040799934711),149.076477
-35.339542,Launceston St after Glenorchy St,2071,POINT (149.07997100021808 -35.33954199934713),149.079971
-35.3396,Launceston St after Burnie St,2072,POINT (149.079834000218 -35.33959999934711),149.079834
-35.368641,Beasley St after Hodgson Cr,2073,POINT (149.084702000222 -35.36864099934401),149.084702
-35.373089,Beasley St before Torrens Pl,2074,POINT (149.08662400022354 -35.373088999343494),149.086624
-35.370811,Beasley St 2nd after Basedow St,2075,POINT (149.0852360002224 -35.370810999343774),149.085236
-35.370743,Beasley St 2nd after Hodgson Cr,2076,POINT (149.08535800022253 -35.37074299934376),149.085358
-35.368484,Beasley St after Hawker St,2077,POINT (149.0844730002218 -35.36848399934403),149.084473
-35.362499,Hodgson Cr Pearce Shops,2078,POINT (149.08221400021998 -35.3624989993447),149.082214
-35.363022,Hodgson Cr opp Pearce Shops,2079,POINT (149.08204700021986 -35.36302199934466),149.082047
-35.360477,Hodgson Cr after Pethebrigde St,2080,POINT (149.08468600022195 -35.360476999344854),149.084686
-35.360455,Hodgson Cr after Shepherd St,2081,POINT (149.08447300022178 -35.36045499934486),149.084473
-35.357918,Hodgson Cr after Collings St,2082,POINT (149.0867160002235 -35.35791799934507),149.086716
-35.357964,Hodgson Cr after Marr St,2083,POINT (149.08688400022365 -35.357963999345074),149.086884
-35.354984,Melrose Dr 2nd after Botany St,2084,POINT (149.08650200022333 -35.354983999345365),149.086502
-35.355209,Melrose Dr after Hodgson Cr,2085,POINT (149.0862430002231 -35.35520899934535),149.086243
-35.352791,Melrose Dr after Botany St,2086,POINT (149.08572400022268 -35.35279099934562),149.085724
-35.352848,Melrose Dr 2nd after Hodgson Cr,2087,POINT (149.08543400022245 -35.35284799934561),149.085434
-35.350876,Botany St after Devine Ct,2088,POINT (149.0863950002232 -35.3508759993458),149.086395
-35.350967,Botany St after Townshend St,2089,POINT (149.08670000022346 -35.35096699934578),149.0867
-35.358631,Badimara St after Kalgoorlie Cr,2090,POINT (149.06018100020324 -35.35863099934559),149.060181
-35.34108,Launceston St after Callam St,2091,POINT (149.08857700022486 -35.34107999934675),149.088577
-35.340313,Launceston St after Yamba Dr,2092,POINT (149.09033200022628 -35.3403129993468),149.090332
-35.340546,Yamba Dr after Justinian St,2093,POINT (149.09352100022886 -35.34054599934669),149.093521
-35.342457,Yamba Dr after Kitchener St,2094,POINT (149.0963900002312 -35.342456999346446),149.09639
-35.346699,Yamba Dr opp Canberra Hospital,2095,POINT (149.09957900023383 -35.34669899934592),149.099579
-35.350117,Tyagarah St after Wallangara St,2096,POINT (149.10644500023957 -35.350116999345396),149.106445
-35.352203,Culgoa Cct after 2nd Jindalee Cr,2097,POINT (149.10438500023784 -35.35220299934523),149.104385
-35.352341,Culgoa Cct after Tyagarah St,2098,POINT (149.10455300023798 -35.35234099934521),149.104553
-35.354378,Culgoa Cct after Jindalee Cr,2099,POINT (149.10499600023837 -35.35437799934499),149.104996
-35.354305,Culgoa Cct after Bulwarra Cl,2100,POINT (149.10510300023847 -35.35430499934498),149.105103
-35.355461,Kareelah Vst after Mialli Pl,2101,POINT (149.1072690002403 -35.355460999344814),149.107269
-35.355484,Kareelah Vst after Gerogery Pl,2102,POINT (149.1071320002402 -35.355483999344806),149.107132
-35.35743,Kareelah Vst after Pindari Cr,2103,POINT (149.1076810002407 -35.3574299993446),149.107681
-35.35778,Kareelah Vst after Taronga Pl,2104,POINT (149.10838300024125 -35.35777999934456),149.108383
-35.359444,Ngunawal Dr after Cobbadah St,2105,POINT (149.10903900024184 -35.35944399934437),149.109039
-35.359623,Ngunawal Dr after Kareelah Vsta,2106,POINT (149.10908500024186 -35.359622999344346),149.109085
-35.362129,Bromby St 2nd after Julia Flynn Av,2107,POINT (149.10694900024006 -35.362128999344144),149.106949
-35.36208,Bromby St after Ngunawal Dr,2108,POINT (149.10713200024023 -35.36207999934415),149.107132
-35.363602,Bromby St after William Wilkins Cr,2109,POINT (149.1077730002408 -35.36360199934396),149.107773
-35.36364,Bromby St after Julia Flynn Av,2110,POINT (149.10765100024068 -35.36363999934396),149.107651
-35.364208,Julia Flynn Av after Adkinson Cl,2111,POINT (149.1105500002431 -35.36420799934384),149.11055
-35.335533,Mulley St St Judes Primary School,2112,POINT (149.05108600019653 -35.33553299934817),149.051086
-35.335617,Mulley St opp St. Judes PS,2113,POINT (149.0510410001965 -35.33561699934817),149.051041
-35.331081,Heysen St after Police CLG,2114,POINT (149.05860900020193 -35.331080999348444),149.058609
-35.331299,Heysen St before Gruner St,2115,POINT (149.0587920002021 -35.33129899934844),149.058792
-35.333355,Heysen St before Parkway overpass,2116,POINT (149.06089800020362 -35.33335499934819),149.060898
-35.333324,Heysen St after Bunny St,2117,POINT (149.0606840002035 -35.333323999348195),149.060684
-35.329563,Dixon Dr after Twynam St,2118,POINT (149.0464320001932 -35.32956299934889),149.046432
-35.329472,Dixon Dr 3rd after Warragamba Av,2119,POINT (149.04626500019307 -35.3294719993489),149.046265
-35.329678,Dixon Dr 2nd after Warragamba Av,2120,POINT (149.0438540001914 -35.32967799934893),149.043854
-35.329815,Dixon Dr after Hyndes Cr,2121,POINT (149.0438690001914 -35.329814999348926),149.043869
-35.330036,Dixon Dr 2nd after Hyndes Cr,2122,POINT (149.0419920001901 -35.33003599934893),149.041992
-35.329948,Dixon Dr after Warragamba Av,2123,POINT (149.04188500019004 -35.329947999348946),149.041885
-35.330177,Warragamba Av 2nd after Jindabyne St,2124,POINT (149.0381620001874 -35.33017699934901),149.038162
-35.33028,Warragamba Av after Dixon Dr,2125,POINT (149.03817700018743 -35.330279999348996),149.038177
-35.334198,Burrinjuck Cr opp Duffy Primary School,2128,POINT (149.03227200018344 -35.3341979993487),149.032272
-35.334835,Burrinjuck Cr Duffy Primary School,2129,POINT (149.03189100018318 -35.33483499934866),149.031891
-35.333469,Burrinjuck Cr before Serpentine St,2130,POINT (149.03479000018513 -35.33346899934874),149.03479
-35.333603,Burrinjuck Cr between Blowering St,2131,POINT (149.03465300018505 -35.33360299934871),149.034653
-35.333023,Burrinjuck Cr after Blowering St,2132,POINT (149.0372160001868 -35.33302299934873),149.037216
-35.336823,Burrinjuck Cr Duffy Shops,2133,POINT (149.0317540001831 -35.33682299934845),149.031754
-35.337044,Burrinjuck Cr opp Duffy Shops,2134,POINT (149.031586000183 -35.337043999348424),149.031586
-35.33844,Renmark St after Jemalong St,2135,POINT (149.03027300018212 -35.33843999934831),149.030273
-35.338455,Renmark St after Eungella St,2136,POINT (149.03045700018225 -35.338454999348315),149.030457
-35.341042,Eucumbene Dr after Hindmarsh Dr,2137,POINT (149.02752700018027 -35.34104199934809),149.027527
-35.341194,Eucumbene Dr after Renmark St,2138,POINT (149.02754200018032 -35.34119399934808),149.027542
-35.343819,Hindmarsh Dr opp Weston Creek Terminus,2139,POINT (149.0278170001805 -35.34381899934781),149.027817
-35.34383,Hindmarsh Dr 2nd after Eucumbene Dr,2140,POINT (149.03012100018205 -35.34382999934776),149.030121
-35.342522,Wyangala St after Hindmarsh Dr,2141,POINT (149.0321660001834 -35.34252199934785),149.032166
-35.341373,Wyangala St after 2nd Burdekin St,2142,POINT (149.033081000184 -35.34137299934795),149.033081
-35.340786,Wyangala St after Tullaroop St,2143,POINT (149.03372200018444 -35.34078599934801),149.033722
-35.342052,Hindmarsh Dr after Dixon Dr,2144,POINT (149.04245000019048 -35.3420519993477),149.04245
-35.342163,Hindmarsh Dr after Carbeen St,2145,POINT (149.04257200019057 -35.342162999347664),149.042572
-35.343914,Hindmarsh Dr before Darwinia Tce,2147,POINT (149.03030400018216 -35.34391399934775),149.030304
-35.346607,Darwinia Tce after Hindmarsh Dr,2148,POINT (149.02871700018113 -35.346606999347514),149.028717
-35.346302,Darwinia Tce after Kathner St,2149,POINT (149.02861000018103 -35.34630199934754),149.02861
-35.349979,Darwinia Tce after Angophora St,2150,POINT (149.03010600018206 -35.349978999347115),149.030106
-35.350174,Darwinia Tce after Rafferty St,2151,POINT (149.03019700018208 -35.350173999347106),149.030197
-35.351418,Darwinia Tce 2nd after Angophora St,2152,POINT (149.03216600018342 -35.35141799934695),149.032166
-35.351395,Darwinia Tce 2nd after Perry Dr,2153,POINT (149.03196700018333 -35.35139499934694),149.031967
-35.352322,Darwinia Tce after Casuarina St,2154,POINT (149.0341490001848 -35.3523219993468),149.034149
-35.352444,Darwinia Tce after Perry Dr,2155,POINT (149.03424100018486 -35.35244399934678),149.034241
-35.354717,Perry Dr after Darwinia Tce,2156,POINT (149.0345610001851 -35.35471699934655),149.034561
-35.354637,Perry Dr after Sidaway St,2157,POINT (149.03445400018506 -35.354636999346546),149.034454
-35.35688,Perry Dr after Rene St,2158,POINT (149.0364380001864 -35.35687999934629),149.036438
-35.35701,Perry Dr after Lipman St,2159,POINT (149.0368650001867 -35.35700999934627),149.036865
-35.356228,Perry Dr opp Chapman Shops,2160,POINT (149.0401150001889 -35.356227999346274),149.040115
-35.356075,Perry Dr Chapman Shops,2161,POINT (149.04039000018912 -35.35607499934628),149.04039
-35.356888,Perry Dr opp Chapman Primary School,2162,POINT (149.04243500019055 -35.35688799934616),149.042435
-35.356827,Perry Dr Chapman Primary School,2163,POINT (149.04260300019067 -35.35682699934617),149.042603
-35.359509,Perry Dr after Namatjira Dr,2164,POINT (149.044540000192 -35.359508999345834),149.04454
-35.35931,Perry Dr after Tauchert St,2165,POINT (149.0443730001919 -35.359309999345875),149.044373
-35.360207,Kalgoorlie Cr 2nd after Badimara St,2166,POINT (149.05314600019815 -35.360206999345586),149.053146
-35.360214,Kalgoorlie Cr after Eleanora St,2167,POINT (149.05293300019798 -35.36021399934559),149.052933
-35.361969,Kalgoorlie Cr Fisher Shops,2168,POINT (149.0566410002007 -35.36196899934534),149.056641
-35.362053,Kalgoorlie Cr opp Fisher Shops,2169,POINT (149.05647300020055 -35.36205299934534),149.056473
-35.362862,Kalgoorlie Cr after Kambalda Cr,2170,POINT (149.05894500020236 -35.36286199934519),149.058945
-35.362778,Kalgoorlie Cr after Fisher Shops,2171,POINT (149.05867000020214 -35.3627779993452),149.05867
-35.360352,Kalgoorlie Cr after Jarrahdale St,2172,POINT (149.06088300020375 -35.36035199934541),149.060883
-35.360058,Kalgoorlie Cr after Pandanus St,2173,POINT (149.06120300020402 -35.36005799934543),149.061203
-35.349922,Badimara St after Hindmarsh Dr,2182,POINT (149.06816100020913 -35.34992199934631),149.068161
-35.349777,Badimara St before Hindmarsh Dr,2183,POINT (149.067993000209 -35.34977699934634),149.067993
-35.345982,McInnes St after Hindmarsh Dr,2184,POINT (149.0627900002051 -35.34598199934685),149.06279
-35.345901,McInnes St after 2nd Buvelot St,2185,POINT (149.06298800020522 -35.345900999346846),149.062988
-35.343941,McInnes St after 1st Chevalier St,2186,POINT (149.06146200020413 -35.34394099934709),149.061462
-35.343857,McInnes St 2nd after Buvelot St,2187,POINT (149.06149300020414 -35.34385699934709),149.061493
-35.343243,McInnes St after 2nd Chevalier St,2188,POINT (149.0591430002024 -35.34324299934722),149.059143
-35.342632,McInnes St after Buvelot St,2189,POINT (149.05864000020205 -35.34263199934728),149.05864
-35.340912,McInnes St after Ironside St,2190,POINT (149.05841100020186 -35.34091199934746),149.058411
-35.340939,McInnes St after Conder St,2191,POINT (149.05819700020172 -35.34093899934748),149.058197
-35.338539,McInnes St after Mather St,2192,POINT (149.0594330002026 -35.33853899934767),149.059433
-35.338413,McInnes St after Hilder St,2193,POINT (149.05952500020265 -35.3384129993477),149.059525
-35.336872,Hilder St after McInnes St,2194,POINT (149.05792200020147 -35.336871999347906),149.057922
-35.336792,Hilder St 2nd after Lycett St,2195,POINT (149.0578160002014 -35.3367919993479),149.057816
-35.33675,Hilder St after Lycett St,2196,POINT (149.05613700020018 -35.336749999347944),149.056137
-35.336842,Hilder St after Gritten St,2197,POINT (149.0556490001998 -35.336841999347946),149.055649
-35.335564,Hilder St after Streeton Dr,2198,POINT (149.05386400019853 -35.33556399934811),149.053864
-35.335594,Hilder St 2nd after Gritten St,2199,POINT (149.05375700019843 -35.335593999348106),149.053757
-35.339272,Namatjira Dr after MacNally St,2200,POINT (149.05455000019904 -35.33927199934772),149.05455
-35.340576,Namatjira Dr after Mather St,2201,POINT (149.0565950002005 -35.34057599934752),149.056595
-35.342274,Namatjira Dr after Conder St,2202,POINT (149.057266000201 -35.342273999347356),149.057266
-35.343277,Parkinson St after 2nd Whitney Pl,2203,POINT (149.05577100019994 -35.34327699934728),149.055771
-35.34341,Parkinson St after Evergood Cl,2204,POINT (149.05577100019994 -35.34340999934727),149.055771
-35.342365,Parkinson St after Whitney Pl,2205,POINT (149.0529630001979 -35.34236499934744),149.052963
-35.342457,Parkinson St after Watling Pl,2206,POINT (149.05287200019782 -35.342456999347434),149.052872
-35.336678,Blackwood Tce after Williamson St,2207,POINT (149.04467800019202 -35.33667799934819),149.044678
-35.336563,Blackwood Tce Holder Shops,2208,POINT (149.04460100019193 -35.33656299934821),149.044601
-35.336098,Blackwood Tce after Tyers St,2209,POINT (149.04115300018955 -35.33609799934833),149.041153
-35.336056,Blackwood Tce after Weingarth St,2210,POINT (149.0409390001894 -35.33605599934833),149.040939
-35.330242,Heysen St Weston Police CLG after Streeton Dr,2212,POINT (149.0552520001995 -35.33024199934864),149.055252
-35.330334,Heysen St Weston Police CLG before Streeton Dr,2213,POINT (149.0552520001995 -35.33033399934862),149.055252
-35.318043,Melbourne Av Senior Girls Grammar School,2214,POINT (149.11532600024688 -35.318042999348464),149.115326
-35.313831,Melbourne Av North of National Cct,2216,POINT (149.11908000025008 -35.3138309993488),149.11908
-35.312176,Melbourne Av North of Somers Cr,2217,POINT (149.12054400025136 -35.31217599934893),149.120544
-35.311169,State Cir before Adelaide Av,2218,POINT (149.12062100025142 -35.31116899934902),149.120621
-35.317139,Gawler Cr opp SGG School,2219,POINT (149.11315900024505 -35.317138999348614),149.113159
-35.317223,Gawler Cr Senior Girls Grammar School,2220,POINT (149.11334200024518 -35.31722299934859),149.113342
-35.314419,Gawler Cr before Robe St,2221,POINT (149.11047400024273 -35.314418999348966),149.110474
-35.313076,Hopetoun Cct before Grey St,2222,POINT (149.10766600024033 -35.313075999349195),149.107666
-35.313061,Hopetoun Cct after Grose St,2223,POINT (149.1073760002401 -35.31306099934917),149.107376
-35.309643,Hopetoun Cct after Hampton Cct,2224,POINT (149.10662800023945 -35.30964299934954),149.106628
-35.310257,Hopetoun Cct after Weston St,2225,POINT (149.10662800023945 -35.310256999349484),149.106628
-35.307365,Hopetoun Cct before Loftus St,2226,POINT (149.10647600023927 -35.30736499934979),149.106476
-35.307423,Hopetoun before Hampton Cct,2227,POINT (149.10656700023938 -35.30742299934978),149.106567
-35.305176,Hopetoun Cct before roundabout,2228,POINT (149.10682700023958 -35.305175999350006),149.106827
-35.304592,Schlich St after Musgrave St,2229,POINT (149.10467500023776 -35.30459199935011),149.104675
-35.304596,Schlich St before roundabout,2230,POINT (149.10630800023915 -35.304595999350056),149.106308
-35.304428,Schlich St after Maiden St,2231,POINT (149.10382100023705 -35.30442799935017),149.103821
-35.315441,Eyre St after Howitt St,2232,POINT (149.1439510002725 -35.31544099934796),149.143951
-35.314297,Wentworth Av after Giles St,2233,POINT (149.144501000273 -35.31429699934808),149.144501
-35.317356,Wentworth Av after Dawes St,2234,POINT (149.14631700027476 -35.31735599934771),149.146317
-35.317089,Wentworth Av before Dawes St,2235,POINT (149.145538000274 -35.31708899934777),149.145538
-35.351929,Nemarang Cr 2nd after Yiman St,2240,POINT (149.063965000206 -35.35192899934621),149.063965
-35.304157,Queen Victoria Tce East Block Govt Offices,2241,POINT (149.1308140002604 -35.304156999349495),149.130814
-35.304008,Queen Victoria Tce Tennis Courts,2242,POINT (149.13087500026046 -35.3040079993495),149.130875
-35.305534,Federation Mall Parliament House Northbound,2245,POINT (149.1260680002562 -35.305533999349485),149.126068
-35.30603,Federation Mall Parliament House Southbound,2246,POINT (149.12704500025706 -35.3060299993494),149.127045
-35.29789,Commonwealth Av opp Albert Hall,2247,POINT (149.12629700025633 -35.297889999350254),149.126297
-35.297775,Commonwealth Av Albert Hall,2248,POINT (149.12588500025598 -35.29777499935029),149.125885
-35.352322,Nemarang Cr after Galibal St,2249,POINT (149.0668790002082 -35.3523219993461),149.066879
-35.353123,Egglestone Cr before Charteris Cr,2250,POINT (149.08078000021882 -35.3531229993457),149.08078
-35.352528,Nemarang Cr after Yiman St,2251,POINT (149.06715400020838 -35.352527999346066),149.067154
-35.311256,Sydney Av before State Cir,2252,POINT (149.12913500025894 -35.311255999348795),149.129135
-35.311089,Sydney Av after State Cir,2253,POINT (149.1297760002595 -35.311088999348804),149.129776
-35.311874,National Cct after Sydney Av,2254,POINT (149.13244600026192 -35.311873999348656),149.132446
-35.312134,National Cct after Bourke St,2255,POINT (149.1324010002619 -35.312133999348625),149.132401
-35.31089,National Cct Press Club,2256,POINT (149.13314800026257 -35.31088999934873),149.133148
-35.309925,National Cct after Darling St,2257,POINT (149.1332090002626 -35.309924999348816),149.133209
-35.306076,National Cct before Kings Av,2258,POINT (149.13314800026254 -35.306075999349225),149.133148
-35.305592,National Cct after Kings Av,2259,POINT (149.1330410002624 -35.305591999349275),149.133041
-35.283512,Anzac Parade after Fairbairn Av,2260,POINT (149.14671300027484 -35.28351199935117),149.146713
-35.283203,Fairbairn Av after Jackson St,2261,POINT (149.15422100028195 -35.283202999351),149.154221
-35.28529,Fairbairn Av before Northcott Dr,2262,POINT (149.16238400028988 -35.285289999350546),149.162384
-35.285252,Fairbairn Av after Northcott Dv,2263,POINT (149.16183500028933 -35.285251999350564),149.161835
-35.343983,Gilmore Cr opp Garran PS,2264,POINT (149.10142500023534 -35.34398299934615),149.101425
-35.343979,Gilmore Cr Garran PS,2265,POINT (149.1016080002355 -35.34397899934615),149.101608
-35.338276,Kitchener St after Birdwood St,2266,POINT (149.10247800023618 -35.3382759993467),149.102478
-35.338146,Kitchener St after Gilmore Cr,2267,POINT (149.102234000236 -35.338145999346715),149.102234
-35.335957,Kitchener St after McNicoll St,2268,POINT (149.10067700023467 -35.33595699934701),149.100677
-35.335186,Kitchener St after Goble St,2269,POINT (149.10000600023412 -35.33518599934708),149.100006
-35.333996,Kitchener St before Goble St,2270,POINT (149.09834300023275 -35.33399599934726),149.098343
-35.333878,Kitchener St 2nd after McNicoll St,2271,POINT (149.09787000023235 -35.33387799934728),149.09787
-35.33313,Kent St opp Hughes Shops,2272,POINT (149.09503200023002 -35.33312999934742),149.095032
-35.329609,Kent St after Carruthers St,2273,POINT (149.09457400022964 -35.32960899934779),149.094574
-35.329376,Kent St after Jensen St,2274,POINT (149.0945280002296 -35.32937599934782),149.094528
-35.325356,Kent St Telstra Exchange Building,2275,POINT (149.0963900002311 -35.32535599934818),149.09639
-35.32494,Kent St opp Telstra Exchange Building,2276,POINT (149.09652700023122 -35.32493999934824),149.096527
-35.322315,Kent St 2nd after Phipps Pl,2277,POINT (149.09773300023215 -35.32231499934848),149.097733
-35.319843,Kent St 3rd after Carruthers St,2278,POINT (149.0981750002325 -35.31984299934871),149.098175
-35.319344,Kent St South of Strickland Cr,2279,POINT (149.09831200023262 -35.31934399934875),149.098312
-35.318474,Strickland Cr after Macgregor St,2280,POINT (149.09884600023304 -35.31847399934883),149.098846
-35.318424,Strickland Cr after Kent St,2281,POINT (149.09901400023318 -35.31842399934883),149.099014
-35.317181,Macgregor St after Cairns St,2282,POINT (149.10142500023517 -35.3171809993489),149.101425
-35.316948,Macgregor St after Strickland Cr,2283,POINT (149.10200500023564 -35.31694799934892),149.102005
-35.316322,Macgregor St opp The Grange,2284,POINT (149.10565200023868 -35.316321999348894),149.105652
-35.316265,Macgregor St The Grange,2285,POINT (149.1052090002383 -35.316264999348896),149.105209
-35.31546,Macgregor St opp Deakin Shops,2286,POINT (149.1083070002409 -35.315459999348924),149.108307
-35.314877,Hopetoun Cct Deakin Shops,2287,POINT (149.10838300024096 -35.314876999348975),149.108383
-35.314785,Gawler Cr after Fergusson Cr,2288,POINT (149.11117600024332 -35.3147849993489),149.111176
-35.356552,Yambina Cr after Nemarang Cr,2289,POINT (149.0597380002029 -35.35655199934583),149.059738
-35.363346,Mawson Dr after Wilkins St,2290,POINT (149.09652700023148 -35.36334599934427),149.096527
-35.322117,Kent St 2nd after Strickland Cr,2291,POINT (149.0979000002323 -35.32211699934848),149.0979
-35.356548,Yambima Cr after Wirangu Pl,2292,POINT (149.0596310002028 -35.356547999345814),149.059631
-35.361446,Ainsworth St after Mawson PS,2293,POINT (149.09872400023323 -35.3614459993444),149.098724
-35.359901,Ainsworth St Mawson Primary School,2294,POINT (149.09783900023248 -35.3599009993446),149.097839
-35.359882,Ainsworth St opp Mawson Primary School,2295,POINT (149.0976260002323 -35.3598819993446),149.097626
-35.356094,Ainsworth St after Colbeck St,2296,POINT (149.09768700023233 -35.356093999345),149.097687
-35.356544,Ainsworth St 2nd after Du Faur St,2297,POINT (149.0974120002321 -35.35654399934496),149.097412
-35.350685,Streeton Dr 2nd after Darwinia Tce,2298,POINT (149.0421450001903 -35.350684999346804),149.042145
-35.352505,Streeton Dr North of Darwinia Tce,2299,POINT (149.04159500018994 -35.352504999346635),149.041595
-35.350578,Ainsworth St after Alsop Cl,2300,POINT (149.09341400022882 -35.35057799934567),149.093414
-35.349842,Ainsworth St after Hindmarsh Dr,2301,POINT (149.09379600022913 -35.34984199934573),149.093796
-35.345757,Gilmore Cr after Eldridge Cr,2302,POINT (149.10496500023828 -35.34575699934589),149.104965
-35.345863,Gilmore Cr 2nd after Hartigan St,2303,POINT (149.10493500023827 -35.345862999345876),149.104935
-35.318466,Strickland Cr Calvary John James Hospital,2304,POINT (149.0956270002304 -35.31846599934891),149.095627
-35.318363,Strickland Cr opp Calvary John James Hosp.,2305,POINT (149.09533700023016 -35.318362999348935),149.095337
-35.311954,Novar St after Kintore Cr,2306,POINT (149.09820600023247 -35.31195399934951),149.098206
-35.310116,Novar St before Weston St,2307,POINT (149.09820600023247 -35.31011599934972),149.098206
-35.307926,Novar St Yarralumla Shops,2308,POINT (149.09819000023242 -35.307925999349926),149.09819
-35.318478,Melbourne Av opp Senior Girls Grammar School,2313,POINT (149.1155700002471 -35.3184779993484),149.11557
-35.320038,Canberra Av Kingston Hotel,2328,POINT (149.13835100026736 -35.320037999347655),149.138351
-35.319443,Giles St Kingston Hotel,2329,POINT (149.13754300026662 -35.319442999347736),149.137543
-35.317204,Giles St after Leichhardt St,2330,POINT (149.1389620002679 -35.317203999347925),149.138962
-35.318268,Eyre St after Ovens St,2331,POINT (149.14035000026922 -35.318267999347796),149.14035
-35.342953,Dalrymple St after Hindmarsh Dr,2332,POINT (149.13848900026767 -35.34295299934529),149.138489
-35.343102,Dalrymple St after Goyder St,2333,POINT (149.13864100026782 -35.34310199934527),149.138641
-35.341373,Goyder St Jindalee Nursing Home,2334,POINT (149.14241000027133 -35.34137299934535),149.14241
-35.341206,Goyder St opp Jindalee Nursing Home,2335,POINT (149.1425020002714 -35.34120599934536),149.142502
-35.339436,Goyder St after Caley Cr,2336,POINT (149.14622500027485 -35.33943599934545),149.146225
-35.339546,Goyder St 2nd after Jerrabomberra Av,2337,POINT (149.14624000027484 -35.33954599934545),149.14624
-35.338409,Goyder St Narrabundah CLG,2338,POINT (149.14801000027654 -35.33840899934548),149.14801
-35.3382,Goyder St after Jerrabomberra Av,2339,POINT (149.14856000027706 -35.33819999934551),149.14856
-35.336697,Goyder St before Kyeema St,2340,POINT (149.15351900028173 -35.33669699934553),149.153519
-35.336754,Goyder St after Kyeema St,2341,POINT (149.15292400028122 -35.33675399934553),149.152924
-35.337067,Goyder St before Tallara Pwy,2342,POINT (149.15600600028412 -35.3370669993454),149.156006
-35.337124,Goyder St 2nd after Kootara Cr,2343,POINT (149.15650900028461 -35.3371239993454),149.156509
-35.334381,Matina St after Tallara Pky,2344,POINT (149.1586460002867 -35.334380999345605),149.158646
-35.33474,Matina St after Kootara Cr,2345,POINT (149.15847800028652 -35.334739999345565),149.158478
-35.333004,Kootara Cr after Deeban Pl,2346,POINT (149.15841700028645 -35.33300399934575),149.158417
-35.333096,Kootara Cr after Matina St,2347,POINT (149.15855400028659 -35.33309599934575),149.158554
-35.332973,Kootara Cr after Warramoo Cr,2348,POINT (149.1566160002847 -35.33297299934583),149.156616
-35.332516,Kootara Cr Narrabundah Shops,2350,POINT (149.15470900028288 -35.33251599934591),149.154709
-35.33194,Kootara Cr after Anembo St,2351,POINT (149.1537020002819 -35.331939999346005),149.153702
-35.331173,Kootara Cr after Iluka St,2352,POINT (149.15219100028042 -35.33117299934613),149.152191
-35.329926,Kootara Cr Narrabundah PS,2353,POINT (149.15098600027926 -35.32992599934629),149.150986
-35.328892,Kootara Cr after Yamba Pl,2354,POINT (149.1500850002784 -35.32889199934642),149.150085
-35.327324,Kootara Cr after McMillan St,2355,POINT (149.14950600027788 -35.327323999346596),149.149506
-35.325417,McMillan Cr after Sturt Av,2356,POINT (149.1478880002763 -35.32541699934685),149.147888
-35.327206,Mckinlay St after McMillan St,2357,POINT (149.14712500027557 -35.327205999346674),149.147125
-35.327301,McKinlay St after Frome St,2358,POINT (149.1470030002755 -35.32730099934667),149.147003
-35.330059,McKinlay St after Warburton St,2359,POINT (149.1466670002752 -35.33005899934639),149.146667
-35.330208,McKinlay St after McIntyre St,2360,POINT (149.14653000027505 -35.330207999346385),149.14653
-35.33147,McIntyre St after Stuart St,2361,POINT (149.14532500027397 -35.33146999934628),149.145325
-35.331757,McIntyre St after McKinlay Pl,2362,POINT (149.14502000027363 -35.33175699934626),149.14502
-35.330776,Stuart St after McIntyre St,2363,POINT (149.14375300027248 -35.33077599934639),149.143753
-35.330177,Stuart St before Strzelecki Cr,2364,POINT (149.14340200027212 -35.330176999346484),149.143402
-35.328655,Stuart St Griffith Shops,2365,POINT (149.14212000027092 -35.32865499934667),149.14212
-35.327961,Stuart St before Favenc Cir,2366,POINT (149.14129600027016 -35.32796099934676),149.141296
-35.325497,Stuart St before Barrallier St,2367,POINT (149.13920600026822 -35.32549699934705),149.139206
-35.325554,Stuart St after Barrallier St,2368,POINT (149.1394040002684 -35.32555399934705),149.139404
-35.323677,Stuart St after Hann St,2369,POINT (149.1377870002669 -35.32367699934731),149.137787
-35.323669,Stuart St after Locker St,2370,POINT (149.13765000026677 -35.3236689993473),149.13765
-35.321072,Captain Cook Cr after Canberra Av,2371,POINT (149.13510100026443 -35.32107199934764),149.135101
-35.321678,Captain Cook Cr Manuka,2372,POINT (149.13452100026387 -35.32167799934759),149.134521
-35.313087,Wentworth Av opp Old Bus Depot Markets,2373,POINT (149.1432190002718 -35.31308699934822),149.143219
-35.311626,Wentworth Av Old Bus Depot Markets,2374,POINT (149.14286800027148 -35.311625999348394),149.142868
-35.309258,Brisbane Av after Macquarie St,2375,POINT (149.1365050002656 -35.30925799934882),149.136505
-35.309746,Brisbane Av Police CLG,2376,POINT (149.13703900026607 -35.30974599934875),149.137039
-35.332813,Whyalla St before Newcastle St,2377,POINT (149.17585800030383 -35.33281299934527),149.175858
-35.34,Yamba Dr after Wisdom St,2378,POINT (149.09312400022853 -35.33999999934675),149.093124
-35.342472,Yamba Dr 3rd after Wisdom St,2379,POINT (149.0968630002316 -35.34247199934641),149.096863
-35.341133,Yamba Dr 2nd after Wisdom St,2380,POINT (149.0947110002298 -35.3411329993466),149.094711
-35.346485,Yamba Dr The Canberra Hospital,2382,POINT (149.09974700023398 -35.34648499934593),149.099747
-35.334259,Canberra Av Service Rd before Whyalla St,2383,POINT (149.1699070002978 -35.33425899934531),149.169907
-35.325108,Nyrang St after Canberra Av,2384,POINT (149.1553040002834 -35.32510799934667),149.155304
-35.332417,Canberra Av Service Rd before Geelong St,2385,POINT (149.16604600029393 -35.3324169993456),149.166046
-35.332687,Canberra Av Service Rd after Geelong St,2386,POINT (149.16627500029418 -35.332686999345555),149.166275
-35.329128,Ipswich St outside Century 21,2387,POINT (149.16302500029093 -35.32912799934602),149.163025
-35.323608,Gladstone St before Maryborough St,2389,POINT (149.1726680003005 -35.32360799934631),149.172668
-35.322266,Gladstone St before Kembla St,2390,POINT (149.1747440003026 -35.32226599934639),149.174744
-35.322292,Gladstone St opp Coates Hire,2391,POINT (149.17964200030758 -35.32229199934624),149.179642
-35.323971,Gladstone St after Albany St,2392,POINT (149.1822050003103 -35.323970999345995),149.182205
-35.331921,Mulley St Grant Cameron Centre,2394,POINT (149.04905700019506 -35.33192099934859),149.049057
-35.334339,Blackwood Tce after Calder Cr,2395,POINT (149.04846200019466 -35.33433899934837),149.048462
-35.334412,Blackwood Tce after Mulley St,2396,POINT (149.04850800019466 -35.33441199934833),149.048508
-35.335625,Blackwood Tce after Pearson St,2397,POINT (149.04647800019325 -35.33562499934826),149.046478
-35.363155,Macfarland Cr opp Pearce Shops,2398,POINT (149.0813290002193 -35.36315499934466),149.081329
-35.329121,Newcastle St before Wollongong St,2401,POINT (149.17816200030614 -35.32912099934557),149.178162
-35.327446,Wollongong St before Maryborough St,2403,POINT (149.17749000030545 -35.32744599934577),149.17749
-35.333878,Whyalla St after Canberra Av,2405,POINT (149.17335500030129 -35.333877999345255),149.173355
-35.327408,Albany St before Collie St,2406,POINT (149.18119800030925 -35.32740799934566),149.181198
-35.326725,Wollongong St Commonwealth Bank,2407,POINT (149.17839100030636 -35.32672499934582),149.178391
-35.335564,Blackwood Tce after Hyndes Cr,2408,POINT (149.04635600019319 -35.33556399934827),149.046356
-35.33289,Burrinjuck Cr after Serpentine St,2409,POINT (149.03733800018688 -35.332889999348744),149.037338
-35.34256,Wyangala St after Waranga Pl,2410,POINT (149.03230300018353 -35.34255999934784),149.032303
